,booliId,streetAddress,constructionYear,soldPriceAbsoluteDiff,soldPricePercentageDiff,listPrice,objectType,descriptiveAreaName,soldPriceType,daysActive,soldDate,latitude,longitude,url,__typename,soldPrice.raw,floor.raw,soldSqmPrice.raw,livingArea.raw,rooms.raw,soldPriceAbsoluteDiff.raw,soldPricePercentageDiff.raw,listPrice.raw,floor,soldSqmPrice,livingArea,rooms
0,4762312,Dianavägen 31,1924.0,,,,Lägenhet,Hjorthagen,Slutpris,,2016-04-21,59.3569027,18.098957,/bostad/588147,SoldProperty,5600000,1.0,82353.0,68.0,2.0,,,,,,,
1,2202974,Sankt Eriksgatan 12,1912.0,,,,Lägenhet,Kungsholmen,Slutpris,5.0,2016-10-26,59.330097,18.030067,/bostad/804311,SoldProperty,4260000,2.0,96818.0,44.0,2.0,765000.0,21.9,3495000.0,,,,
2,2122055,Brännkyrkagatan 79,1929.0,,,,Lägenhet,Högalid,Slutpris,1.0,2016-08-19,59.31821423,18.05296555,/bostad/3781964,SoldProperty,11100000,,109901.0,101.0,4.0,,,,,,,
3,2198314,Nybrogatan 89,1888.0,,,,Lägenhet,Östermalm,Slutpris,6.0,2016-10-20,59.34201111,18.08287389,/bostad/688006,SoldProperty,10700000,1.0,117582.0,91.0,3.0,1750000.0,19.6,8950000.0,,,,
4,2184052,Jungfrugatan 52,1928.0,,,,Lägenhet,Östermalm,Slutpris,7.0,2016-10-01,59.34115,18.085478,/annons/2184052,SoldProperty,7750000,5.0,133621.0,58.0,2.0,850000.0,12.3,6900000.0,,,,
5,2154936,Karlbergsvägen 58,1913.0,,,,Lägenhet,Vasastan,Slutpris,22.0,2016-09-08,59.34262926,18.0347862,/bostad/475413,SoldProperty,8300000,,107792.0,77.0,2.0,-600000.0,-6.7,8900000.0,,,,
6,2152016,Kungsholmsgatan 15,1936.0,,,,Lägenhet,Kungsholmen,Slutpris,18.0,2016-08-30,59.3309828,18.0477101,/bostad/646812,SoldProperty,6100000,6.0,85915.0,71.0,2.5,450000.0,8.0,5650000.0,,,,
7,2084657,Snoilskyvägen 26,1935.0,,,,Radhus,Kungsholmen,Slutpris,18.0,2016-05-11,59.3299085,17.9983852,/annons/2084657,SoldProperty,11200000,,107692.0,104.0,5.0,300000.0,2.8,10900000.0,,,,
8,2072207,Garvargatan 19,,,,,Lägenhet,Kungsholmen,Slutpris,13.0,2016-04-21,59.328117,18.041353,/annons/2072207,SoldProperty,14600000,6.0,116800.0,125.0,6.0,1100000.0,8.1,13500000.0,,,,
9,2038262,Engelbrektsgatan 16,1879.0,,,,Lägenhet,Östermalm,Slutpris,15.0,2016-02-28,59.34383,18.072664,/bostad/581266,SoldProperty,7950000,3.0,100633.0,79.0,3.0,550000.0,7.4,7400000.0,,,,
10,1975953,Skeppargatan 60,1926.0,,,,Lägenhet,Östermalm,Slutpris,72.0,2016-02-25,59.33793302,18.08621566,/bostad/732967,SoldProperty,4775000,1.0,88426.0,54.0,2.0,0.0,0.0,4775000.0,,,,
11,2225954,Frödingsvägen 10,1931.0,,,,Lägenhet,Kungsholmen,Slutpris,19.0,2016-12-21,59.33021,18.00249,/annons/2225954,SoldProperty,3810000,4.0,112059.0,34.0,1.5,120000.0,3.3,3690000.0,,,,
12,2130743,Åsögatan 182,1943.0,,,,Lägenhet,Sofia,Slutpris,15.0,2016-07-07,59.314552,18.089264,/annons/2130743,SoldProperty,3600000,3.0,100000.0,36.0,2.0,750000.0,26.3,2850000.0,,,,
13,2145167,Fatburs Kvarngata 11,1992.0,,,,Lägenhet,Södermalm,Slutpris,14.0,2016-08-25,59.31319638,18.05943351,/annons/2145167,SoldProperty,4650000,2.0,69403.0,67.0,3.0,455000.0,10.8,4195000.0,,,,
14,2157467,Åsögatan 194,1930.0,,,,Lägenhet,Södermalm,Slutpris,11.0,2016-08-31,59.31444,18.091877,/bostad/796837,SoldProperty,3660000,2.0,79565.0,46.0,2.0,465000.0,14.6,3195000.0,,,,
15,2166004,Ölandsgatan 48,1912.0,,,,Lägenhet,Södermalm,Slutpris,20.0,2016-09-22,59.308746,18.077957,/bostad/797761,SoldProperty,3950000,4.0,94048.0,42.0,2.0,660000.0,20.1,3290000.0,,,,
16,2171685,Fatburs Kvarngata 9,1992.0,,,,Lägenhet,Södermalm,Slutpris,13.0,2016-09-22,59.31294725,18.05859648,/bostad/572179,SoldProperty,5815000,6.0,71790.0,81.0,4.0,1120000.0,23.9,4695000.0,,,,
17,2193742,Tullgårdsgatan 10,1993.0,,,,Lägenhet,Södermalm,Slutpris,17.0,2016-10-23,59.30519606,18.08284737,/bostad/344012,SoldProperty,9010000,5.0,81909.0,110.0,4.0,910000.0,11.2,8100000.0,,,,
18,2188761,Lignagatan 3,1904.0,,,,Lägenhet,Södermalm,Slutpris,13.0,2016-10-12,59.3159087,18.03715298,/annons/2188761,SoldProperty,5250000,4.0,84677.0,62.0,2.0,755000.0,16.8,4495000.0,,,,
19,2183549,Själagårdsgatan 8A,1887.0,,,,Lägenhet,Gamla Stan,Slutpris,17.0,2016-10-30,59.3243389,18.0728804,/bostad/728392,SoldProperty,9250000,4.0,102778.0,90.0,3.5,455000.0,5.2,8795000.0,,,,
20,2207112,Lundagatan 40A,1930.0,,,,Lägenhet,Södermalm,Slutpris,5.0,2016-11-03,59.318584,18.045412,/bostad/663776,SoldProperty,3300000,,113793.0,29.0,1.0,1105000.0,50.3,2195000.0,,,,
21,2211151,Pokalvägen 4,1944.0,,,,Lägenhet,Södermalm,Slutpris,14.0,2016-11-18,59.31851,18.02356,/bostad/700745,SoldProperty,3250000,4.0,81250.0,40.0,1.5,555000.0,20.6,2695000.0,,,,
22,2211401,Katarina Bangata 67A,1967.0,,,,Lägenhet,Södermalm,Slutpris,16.0,2016-11-20,59.30942982,18.08820557,/annons/2211401,SoldProperty,2950000,4.0,105357.0,28.0,1.0,555000.0,23.2,2395000.0,,,,
23,2215560,Tullgårdsgatan 10,1993.0,,,,Lägenhet,Södermalm,Slutpris,12.0,2016-11-23,59.30519606,18.08284737,/bostad/344014,SoldProperty,6600000,6.0,89189.0,74.0,4.0,1105000.0,20.1,5495000.0,,,,
24,2101597,Fatburs Brunnsgata 22,1988.0,,,,Lägenhet,Södermalm,Slutpris,21.0,2016-06-03,59.31361892,18.06439328,/annons/2101597,SoldProperty,5500000,5.0,72368.0,76.0,3.0,505000.0,10.1,4995000.0,,,,
25,2124684,Götgatan 73A,1889.0,,,,Lägenhet,Södermalm,Slutpris,13.0,2016-06-23,59.31135934,18.07511687,/annons/2124684,SoldProperty,4200000,3.0,82353.0,51.0,2.0,205000.0,5.1,3995000.0,,,,
26,2167420,Skeppargatan 21,1893.0,,,,Lägenhet,Östermalm,Slutpris,11.0,2016-09-16,59.3339394,18.082725,/bostad/732615,SoldProperty,3925000,,112143.0,35.0,2.0,75000.0,1.9,3850000.0,,,,
27,2170726,Karlavägen 72,1928.0,,,,Lägenhet,Mälardalen,Slutpris,73.0,2016-11-21,59.3381815,18.086567,/annons/2170726,SoldProperty,27000000,3.0,112033.0,241.0,6.0,2000000.0,8.0,25000000.0,,,,
28,2156759,Brantingsgatan 22,1939.0,,,,Lägenhet,Gärdet,Slutpris,12.0,2016-08-31,59.34619,18.094612,/bostad/591682,SoldProperty,3150000,3.0,85135.0,37.0,1.5,300000.0,10.5,2850000.0,,,,
29,2193860,Sandhamnsgatan 53,1962.0,,,,Radhus,Gärdet,Slutpris,11.0,2016-10-18,59.34225,18.110825,/annons/2193860,SoldProperty,3620000,,92821.0,39.0,2.0,670000.0,22.7,2950000.0,,,,
30,2192888,Sandhamnsgatan 57A,1966.0,,,,Lägenhet,Gärdet,Slutpris,11.0,2016-10-18,59.341805,18.111792,/annons/2192888,SoldProperty,2600000,1.0,78788.0,33.0,1.0,125000.0,5.1,2475000.0,,,,
31,2193659,Sandhamnsgatan 21,1943.0,,,,Lägenhet,Gärdet,Slutpris,11.0,2016-10-18,59.345383,18.109404,/bostad/720131,SoldProperty,4410000,6.0,74746.0,59.0,3.0,660000.0,17.6,3750000.0,,,,
32,2205139,Östhammarsgatan 69,1944.0,,,,Lägenhet,Gärdet,Slutpris,24.0,2016-11-19,59.343777,18.111343,/annons/2205139,SoldProperty,2875000,2.0,72785.0,39.5,1.0,380000.0,15.2,2495000.0,,,,
33,2074310,Gotlandsgatan 60,1935.0,,,,Lägenhet,Södermalm Katarina,Slutpris,11.0,2016-04-26,59.31004,18.08006,/bostad/153594,SoldProperty,2610000,3.0,93214.0,28.0,1.0,460000.0,21.4,2150000.0,,,,
34,2089761,Kocksgatan 40,1939.0,,,,Lägenhet,Södermalm Katarina,Slutpris,13.0,2016-05-12,59.314346,18.080992,/bostad/637304,SoldProperty,2890000,6.0,82571.0,35.0,2.0,195000.0,7.2,2695000.0,,,,
35,2043520,Svarvargatan 10,1931.0,,,,Lägenhet,Kungsholmen,Slutpris,13.0,2016-04-14,59.337445,18.0276961,/bostad/756605,SoldProperty,3300000,3.0,76744.0,43.0,1.5,350000.0,11.9,2950000.0,,,,
36,2089581,Kommendörsgatan 40A,1887.0,,,,Lägenhet,Östermalm,Slutpris,12.0,2016-05-11,59.3370325,18.0861255,/annons/2089581,SoldProperty,5750000,2.0,122340.0,47.0,2.0,755000.0,15.1,4995000.0,,,,
37,2104742,Dalagatan 21,1888.0,,,,Lägenhet,Vasastan,Slutpris,9.0,2016-05-26,59.343235,18.043886,/annons/2104742,SoldProperty,3600000,2.0,100000.0,36.0,1.0,405000.0,12.7,3195000.0,,,,
38,2102393,Atlasgatan 7,1929.0,,,,Lägenhet,Vasastan,Slutpris,17.0,2016-05-30,59.338142,18.038769,/bostad/333154,SoldProperty,3750000,3.0,96154.0,39.0,2.0,355000.0,10.5,3395000.0,,,,
39,2115571,Reimersholmsgatan 77,1981.0,,,,Lägenhet,Reimersholme,Slutpris,14.0,2016-06-11,59.3175261,18.0179433,/bostad/705768,SoldProperty,5025000,2.0,70280.0,71.5,2.0,530000.0,11.8,4495000.0,,,,
40,2083922,Surbrunnsgatan 2,1897.0,,,,Lägenhet,Vasastan,Slutpris,5.0,2016-07-19,59.34653935,18.06157258,/bostad/754724,SoldProperty,4000000,1.0,100000.0,40.0,2.0,505000.0,14.4,3495000.0,,,,
41,2139606,Birger Jarlsgatan 104L,1928.0,,,,Lägenhet,Vasastan,Slutpris,7.0,2016-07-21,59.34756182,18.06255343,/annons/2139606,SoldProperty,3000000,1.0,96774.0,31.0,1.0,505000.0,20.2,2495000.0,,,,
42,2078961,Fleminggatan 27,1907.0,,,,Lägenhet,Kungsholmen,Slutpris,13.0,2016-08-05,59.332897,18.043653,/bostad/574925,SoldProperty,7100000,1.0,86585.0,82.0,3.0,405000.0,6.0,6695000.0,,,,
43,2073069,Södermannagatan 10,1930.0,,,,Lägenhet,Södermalm,Slutpris,11.0,2016-08-08,59.3145,18.079885,/bostad/637211,SoldProperty,3400000,2.0,87179.0,39.0,1.5,405000.0,13.5,2995000.0,,,,
44,2148437,Ehrensvärdsgatan 4,1931.0,,,,Lägenhet,Kungsholmen,Slutpris,12.0,2016-08-18,59.328335,18.03432,/bostad/333782,SoldProperty,4040000,4.0,93953.0,43.0,2.0,545000.0,15.6,3495000.0,,,,
45,2152393,Drottninggatan 110,1886.0,,,,Lägenhet,Centrum,Slutpris,14.0,2016-08-26,59.339115,18.056335,/annons/2152393,SoldProperty,8300000,,92222.0,90.0,3.5,605000.0,7.9,7695000.0,,,,
46,2152698,Svartensgatan 8B,1892.0,,,,Lägenhet,Södermalm,Slutpris,14.0,2016-08-26,59.31715,18.073326,/annons/2152698,SoldProperty,5275000,3.0,90948.0,58.0,2.0,280000.0,5.6,4995000.0,,,,
47,2162010,Odengatan 75,1899.0,,,,Lägenhet,Vasastan,Slutpris,12.0,2016-09-07,59.3424132,18.049771,/bostad/691902,SoldProperty,16000000,4.0,110345.0,145.0,5.0,2005000.0,14.3,13995000.0,,,,
48,2162219,Strålgatan 45,1939.0,,,,Lägenhet,Lilla Essingen,Slutpris,11.0,2016-09-07,59.3244386,18.00338822,/bostad/752125,SoldProperty,3500000,4.0,94595.0,37.0,2.0,705000.0,25.2,2795000.0,,,,
49,2171982,Norrbackagatan 40,1906.0,,,,Lägenhet,Birkastan,Slutpris,11.0,2016-09-20,59.34122053,18.03078261,/bostad/684555,SoldProperty,4330000,3.0,105610.0,41.0,2.0,835000.0,23.9,3495000.0,,,,
50,2078994,Birger Jarlsgatan 125,1912.0,,,,Lägenhet,Vasastan,Slutpris,28.0,2016-09-17,59.3506,18.05749,/annons/2078994,SoldProperty,3820000,4.0,77959.0,49.0,2.0,-175000.0,-4.4,3995000.0,,,,
51,2172018,Birger Jarlsgatan 67,1924.0,,,,Lägenhet,Östermalm,Slutpris,11.0,2016-09-20,59.34330706,18.0626009,/bostad/562932,SoldProperty,7195000,2.0,105809.0,68.0,3.0,1200000.0,20.0,5995000.0,,,,
52,2177549,Wallingatan 13,1889.0,,,,Lägenhet,Centrum,Slutpris,14.0,2016-09-30,59.33704517,18.056795,/bostad/794750,SoldProperty,10375000,,90217.0,115.0,4.0,680000.0,7.0,9695000.0,,,,
53,2177610,Linnégatan 78,1970.0,,,,Lägenhet,Östermalm,Slutpris,31.0,2016-10-18,59.3343881,18.0936147,/annons/2177610,SoldProperty,4995000,2.0,120944.0,41.3,2.0,0.0,0.0,4995000.0,,,,
54,2195091,Gyllenborgsgatan 11,1927.0,,,,Lägenhet,Kungsholmen,Slutpris,9.0,2016-10-19,59.33283,18.015713,/annons/2195091,SoldProperty,3450000,2.0,88462.0,39.0,2.0,555000.0,19.2,2895000.0,,,,
55,2193296,Frejgatan 36A,1944.0,,,,Lägenhet,Vasastan,Slutpris,13.0,2016-10-20,59.344894,18.047089,/annons/2193296,SoldProperty,3700000,1.0,97368.0,38.0,1.5,505000.0,15.8,3195000.0,,,,
56,2193768,Birger Jarlsgatan 97,1910.0,,,,Lägenhet,Vasastan,Slutpris,14.0,2016-10-21,59.34730509,18.06072661,/annons/2193768,SoldProperty,6200000,2.0,98413.0,63.0,3.0,705000.0,12.8,5495000.0,,,,
57,2198969,Ingemarsgatan 3B,1913.0,,,,Lägenhet,Vasastan,Slutpris,14.0,2016-10-29,59.34937,18.058014,/annons/2198969,SoldProperty,3450000,2.0,107813.0,32.0,2.0,555000.0,19.2,2895000.0,,,,
58,2199011,Birger Jarlsgatan 65A,1913.0,,,,Lägenhet,Vasastan,Slutpris,19.0,2016-11-03,59.343155,18.062845,/bostad/99327,SoldProperty,12000000,1.5,86331.0,139.0,4.0,505000.0,4.4,11495000.0,,,,
59,2203177,Odengatan 81,1898.0,,,,Lägenhet,Vasastan,Slutpris,13.0,2016-11-03,59.3420405,18.0482898,/bostad/691939,SoldProperty,4900000,4.0,116667.0,42.0,2.0,705000.0,16.8,4195000.0,,,,
60,2190612,Strålgatan 45,1938.0,,,,Lägenhet,Lilla Essingen,Slutpris,40.0,2016-11-13,59.3244386,18.00338822,/bostad/752119,SoldProperty,3250000,3.0,85526.0,38.0,2.0,255000.0,8.5,2995000.0,,,,
61,2203228,Bergsgatan 29,1935.0,,,,Lägenhet,Kungsholmen,Slutpris,18.0,2016-11-08,59.33021,18.040552,/bostad/576322,SoldProperty,4200000,5.0,113514.0,37.0,2.0,205000.0,5.1,3995000.0,,,,
62,2211656,Luntmakargatan 70,1798.0,,,,Lägenhet,Vasastan,Slutpris,12.0,2016-11-16,59.341606,18.05949,/bostad/648018,SoldProperty,4100000,1.0,107895.0,38.0,2.0,805000.0,24.4,3295000.0,,,,
63,2137094,Tomtebogatan 29,1909.0,,,,Lägenhet,Birkastan,Slutpris,10.0,2016-11-25,59.341457,18.03025,/bostad/684320,SoldProperty,10800000,2.0,100000.0,108.0,4.5,1005000.0,10.3,9795000.0,,,,
64,2223421,Kungstensgatan 61,1886.0,,,,Lägenhet,Vasastan,Slutpris,13.0,2016-12-08,59.339428,18.050266,/bostad/648177,SoldProperty,11400000,3.0,102703.0,111.0,4.0,1405000.0,14.1,9995000.0,,,,
65,2091138,Ringvägen 141,1928.0,,,,Lägenhet,Södermalm,Slutpris,24.0,2016-05-27,59.30882367,18.08137872,/bostad/708948,SoldProperty,4150000,3.0,72807.0,57.0,2.0,-250000.0,-5.7,4400000.0,,,,
66,2205596,Birkagatan 31,1903.0,,,,Lägenhet,Vasastan,Slutpris,16.0,2016-11-12,59.34171731,18.03554093,/bostad/324467,SoldProperty,3950000,3.0,106757.0,37.0,1.5,553000.0,16.3,3397000.0,,,,
67,2188959,Surbrunnsgatan 33,1903.0,,,,Lägenhet,Vasastan,Slutpris,20.0,2016-10-21,59.34533743,18.05803344,/annons/2188959,SoldProperty,5775000,2.0,69578.0,83.0,3.0,-75000.0,-1.3,5850000.0,,,,
68,2222416,Dannemoragatan 16A,1930.0,,,,Lägenhet,Vasastan,Slutpris,13.0,2016-12-08,59.3486,18.0441,/annons/2222416,SoldProperty,3920000,1.0,93333.0,42.0,2.0,670000.0,20.6,3250000.0,,,,
69,2082501,Sibyllegatan 31,1927.0,,,,Lägenhet,Östermalm,Slutpris,29.0,2016-05-20,59.33653358,18.08003773,/bostad/799861,SoldProperty,3500000,2.0,120690.0,29.0,1.0,705000.0,25.2,2795000.0,,,,
70,2025801,Vattugatan 13,2003.0,,,,Lägenhet,Vasastan,Slutpris,7.0,2016-01-27,59.3304,18.0634,/bostad/435010,SoldProperty,7700000,5.0,80628.0,95.5,3.0,105000.0,1.4,7595000.0,,,,
71,2157023,Wallingatan 11,1889.0,,,,Lägenhet,Vasastan,Slutpris,13.0,2016-09-01,59.33684985,18.05707646,/annons/2157023,SoldProperty,4050000,2.0,112500.0,36.0,1.0,455000.0,12.7,3595000.0,,,,
72,1885427,Malmgårdsvägen 20,1967.0,,,,Lägenhet,Södermalm,Slutpris,14.0,2016-02-19,59.30938322,18.08966447,/bostad/632435,SoldProperty,4700000,5.0,81034.0,58.0,2.0,825000.0,21.3,3875000.0,,,,
73,1879430,Åsögatan 185,1905.0,,,,Lägenhet,Södermalm,Slutpris,13.0,2016-03-10,59.31468,18.0905,/bostad/138799,SoldProperty,4060000,1.0,84583.0,48.0,2.0,585000.0,16.8,3475000.0,,,,
74,2050784,Klippgatan 14E,1930.0,,,,Lägenhet,Södermalm,Slutpris,13.0,2016-03-17,59.314186,18.087606,/annons/2050784,SoldProperty,2650000,11.0,101923.0,26.0,1.0,655000.0,32.8,1995000.0,,,,
75,2034352,Åsögatan 174,1930.0,,,,Lägenhet,Södermalm,Slutpris,14.0,2016-04-15,59.3144916,18.0870682,/annons/2034352,SoldProperty,2610000,3.0,116000.0,22.5,1.0,615000.0,30.8,1995000.0,,,,
76,2062154,Ringvägen 151A,1929.0,,,,Lägenhet,Södermalm,Slutpris,14.0,2016-04-29,59.3094946,18.0833846,/bostad/3786076,SoldProperty,3500000,1.0,81395.0,43.0,2.0,510000.0,17.1,2990000.0,,,,
77,2090076,Åsögatan 154C,1968.0,,,,Lägenhet,Södermalm,Slutpris,3.0,2016-05-03,59.31375,18.082481,/annons/2090076,SoldProperty,6475000,4.0,78012.0,83.0,3.0,1000000.0,18.3,5475000.0,,,,
78,2080673,Åsögatan 174,1930.0,,,,Lägenhet,Södermalm,Slutpris,13.0,2016-05-11,59.3144916,18.0870682,/bostad/139083,SoldProperty,2500000,5.0,104167.0,24.0,1.0,505000.0,25.3,1995000.0,,,,
79,2084329,Drakenbergsgatan 8,1969.0,,,,Lägenhet,Södermalm,Slutpris,19.0,2016-05-11,59.31612834,18.04166436,/bostad/340677,SoldProperty,2625000,1.0,70946.0,37.0,1.0,275000.0,11.7,2350000.0,,,,
80,2120056,Götgatan 118,1981.0,,,,Lägenhet,Södermalm,Slutpris,19.0,2016-06-22,59.308067,18.07415,/annons/2120056,SoldProperty,5850000,1.0,62903.0,93.0,4.0,-45000.0,-0.8,5895000.0,,,,
81,2137839,Renstiernas gata 27,1959.0,,,,Lägenhet,Södermalm,Slutpris,12.0,2016-07-20,59.3138592,18.084786,/annons/2137839,SoldProperty,3050000,7.0,122000.0,25.0,1.0,755000.0,32.9,2295000.0,,,,
82,2157106,Flintbacken 16,1964.0,,,,Lägenhet,Södermalm,Slutpris,18.0,2016-09-06,59.30979048,18.04947826,/bostad/345737,SoldProperty,4600000,2.0,67647.0,68.0,3.0,400000.0,9.5,4200000.0,,,,
83,2171936,Renstiernas gata 27,1959.0,,,,Lägenhet,Södermalm,Slutpris,19.0,2016-09-28,59.3138592,18.084786,/bostad/706078,SoldProperty,6100000,4.0,69318.0,88.0,3.0,-150000.0,-2.4,6250000.0,,,,
84,2181974,Torbjörn Klockares gata 3,1924.0,,,,Lägenhet,Vasastan,Slutpris,13.0,2016-10-13,59.34454983,18.03321255,/annons/2181974,SoldProperty,4500000,2.0,72581.0,62.0,2.0,550000.0,13.9,3950000.0,,,,
85,2226555,Borgmästargatan 9,1930.0,,,,Lägenhet,Södermalm,Slutpris,11.0,2016-12-13,59.31416794,18.08680214,/bostad/138992,SoldProperty,4200000,3.0,102439.0,41.0,2.0,0.0,0.0,4200000.0,,,,
86,2182076,Hagagatan 18,1906.0,,,,Lägenhet,Vasastan,Slutpris,7.0,2016-09-29,59.3453708,18.0518511,/annons/2182076,SoldProperty,8900000,4.0,89000.0,100.0,3.0,1250000.0,16.3,7650000.0,,,,
87,2066730,Stagneliusvägen 23,1937.0,,,,Lägenhet,Kungsholmen,Slutpris,14.0,2016-04-15,59.32751277,18.01041132,/bostad/745299,SoldProperty,3075000,3.0,87857.0,35.0,2.0,580000.0,23.2,2495000.0,,,,
88,2088060,Tjärhovsgatan 10,1929.0,,,,Lägenhet,Södermalm,Slutpris,6.0,2016-05-04,59.3150042,18.0753746,/annons/2088060,SoldProperty,2800000,0.5,96552.0,29.0,1.0,510000.0,22.3,2290000.0,,,,
89,2073273,Karlavägen 54,1942.0,,,,Lägenhet,Östermalm,Slutpris,18.0,2016-04-26,59.33921095,18.08158206,/annons/2073273,SoldProperty,3495000,3.0,124821.0,28.0,1.0,745000.0,27.1,2750000.0,,,,
90,2104501,Olof Palmes gata 12,1938.0,,,,Lägenhet,Norrmalm,Slutpris,18.0,2016-06-04,59.33628986,18.06140589,/bostad/344912,SoldProperty,3900000,2.0,95122.0,41.0,2.0,625000.0,19.1,3275000.0,,,,
91,2118889,Pipersgatan 18,1934.0,,,,Lägenhet,Kungsholmen,Slutpris,19.0,2016-06-21,59.33073,18.045973,/annons/2118889,SoldProperty,3050000,1.0,82432.0,37.0,2.0,55000.0,1.8,2995000.0,,,,
92,2144322,Brännkyrkagatan 119,1945.0,,,,Lägenhet,Södermalm,Slutpris,6.0,2016-08-03,59.31720688,18.04450442,/bostad/594078,SoldProperty,2500000,1.0,119048.0,21.0,1.0,625000.0,33.3,1875000.0,,,,
93,2131475,Skånegatan 72A,1882.0,,,,Lägenhet,Södermalm,Slutpris,14.0,2016-08-12,59.311977,18.078146,/bostad/736731,SoldProperty,3300000,3.0,97059.0,34.0,1.5,550000.0,20.0,2750000.0,,,,
94,2161944,Östgötagatan 33,1912.0,,,,Lägenhet,Södermalm,Slutpris,21.0,2016-09-16,59.31486,18.07649,/bostad/150171,SoldProperty,3470000,4.0,93784.0,37.0,1.0,520000.0,17.6,2950000.0,,,,
95,2144321,Heleneborgsgatan 30B,1927.0,,,,Lägenhet,Södermalm,Slutpris,15.0,2016-08-12,59.31977546,18.03840781,/annons/2144321,SoldProperty,3400000,2.0,85000.0,40.0,1.0,450000.0,15.3,2950000.0,,,,
96,2178518,Stagneliusvägen 23,,,,,Lägenhet,Kungsholmen,Slutpris,61.0,2016-09-28,59.32751277,18.01041132,/bostad/745309,SoldProperty,2375000,4.0,107955.0,22.0,1.0,485000.0,25.7,1890000.0,,,,
97,2178361,Södermannagatan 76,1887.0,,,,Lägenhet,Södermalm,Slutpris,14.0,2016-10-21,59.30735479,18.08336866,/bostad/336332,SoldProperty,3900000,1.0,81250.0,48.0,2.0,-75000.0,-1.9,3975000.0,,,,
98,2179096,Regeringsgatan 70F,,,,,Lägenhet,Centrum,Slutpris,7.0,2016-10-28,59.3371,18.0686,/bostad/704879,SoldProperty,6200000,1.0,78481.0,79.0,3.0,725000.0,13.2,5475000.0,,,,
99,2178467,Alströmergatan 32R,,,,,Lägenhet,Kungsholmen,Slutpris,87.0,2016-11-04,59.33656568,18.02685285,/annons/2178467,SoldProperty,3250000,2.0,116071.0,28.0,1.0,875000.0,36.8,2375000.0,,,,
100,2224214,Repslagargatan 8,1992.0,,,,Lägenhet,Södermalm,Slutpris,5.0,2016-12-03,59.317814,18.070112,/bostad/326737,SoldProperty,8000000,3.0,77670.0,103.0,4.0,1305000.0,19.5,6695000.0,,,,
101,2215265,Lindvallsgatan 2,1929.0,,,,Lägenhet,Södermalm,Slutpris,13.0,2016-11-24,59.3168469,18.02984,/annons/2215265,SoldProperty,3750000,5.0,87209.0,43.0,1.5,650000.0,21.0,3100000.0,,,,
102,2228215,Creutzgatan 8,1926.0,,,,Lägenhet,Kungsholmen,Slutpris,2.0,2016-12-09,59.33282,18.014616,/annons/2228215,SoldProperty,3150000,1.0,82895.0,38.0,1.0,555000.0,21.4,2595000.0,,,,
103,2229866,Thorildsvägen 4,1926.0,,,,Lägenhet,Kungsholmen,Slutpris,3.0,2016-12-16,59.3327434,18.0166616,/annons/2229866,SoldProperty,2950000,4.0,107273.0,27.5,1.0,655000.0,28.5,2295000.0,,,,
104,2226510,Linnégatan 17A,1940.0,,,,Lägenhet,Östermalm,Slutpris,14.0,2016-12-16,59.3377,18.0783,/bostad/658090,SoldProperty,3130000,1.0,120385.0,26.0,1.0,535000.0,20.6,2595000.0,,,,
105,2016377,Valhallavägen 12B,1971.0,,,,Lägenhet,Östermalm,Slutpris,14.0,2016-01-13,59.3490847,18.0611035,/bostad/333969,SoldProperty,5500000,4.0,83333.0,66.0,3.0,1000000.0,22.2,4500000.0,,,,
106,2025101,Riddargatan 21,1939.0,,,,Lägenhet,Östermalm,Slutpris,14.0,2016-02-03,59.33328829,18.08288994,/bostad/706559,SoldProperty,3300000,1.0,110000.0,30.0,1.0,550000.0,20.0,2750000.0,,,,
107,2029324,Sysslomansgatan 22,1940.0,,,,Lägenhet,Kungsholmen,Slutpris,12.0,2016-02-09,59.3310869,18.0243153,/annons/2029324,SoldProperty,4800000,6.0,76190.0,63.0,2.0,800000.0,20.0,4000000.0,,,,
108,2031098,Fleminggatan 60,1884.0,,,,Lägenhet,Kungsholmen,Slutpris,23.0,2016-02-25,59.3349904,18.02939318,/annons/2031098,SoldProperty,3800000,0.5,86364.0,44.0,2.0,300000.0,8.6,3500000.0,,,,
109,2044362,John Ericssonsgatan 7,1934.0,,,,Lägenhet,Kungsholmen,Slutpris,9.0,2016-03-05,59.328384,18.03685,/bostad/136136,SoldProperty,3800000,6.0,131034.0,29.0,1.0,1300000.0,52.0,2500000.0,,,,
110,2044366,Love Almqvists väg 4A,1935.0,,,,Lägenhet,Kungsholmen,Slutpris,12.0,2016-03-08,59.33455473,18.00219566,/bostad/371955,SoldProperty,3715000,4.0,78211.0,47.5,2.0,965000.0,35.1,2750000.0,,,,
111,2066523,Baltzar von Platens gata 5,1931.0,,,,Lägenhet,Kungsholmen,Slutpris,13.0,2016-04-14,59.329,18.03137,/annons/2066523,SoldProperty,3500000,1.0,100000.0,35.0,1.5,505000.0,16.9,2995000.0,,,,
112,2070648,Pontonjärgatan 18,1931.0,,,,Lägenhet,Kungsholmen,Slutpris,12.0,2016-04-19,59.328873,18.035156,/annons/2070648,SoldProperty,2720000,3.0,104615.0,26.0,1.0,725000.0,36.3,1995000.0,,,,
113,2072744,John Ericssonsgatan 7,1934.0,,,,Lägenhet,Kungsholmen,Slutpris,16.0,2016-04-25,59.328384,18.03685,/bostad/136147,SoldProperty,3640000,4.0,95789.0,38.0,2.0,645000.0,21.5,2995000.0,,,,
114,2074921,Essingestråket 38,1942.0,,,,Lägenhet,Essingeöarna,Slutpris,14.0,2016-04-27,59.321274,17.983969,/bostad/567853,SoldProperty,7400000,3.0,91358.0,81.0,3.0,900000.0,13.8,6500000.0,,,,
115,2087837,Baltzar von Platens gata 5,1931.0,,,,Lägenhet,Kungsholmen,Slutpris,14.0,2016-05-12,59.329,18.03137,/annons/2087837,SoldProperty,12300000,7.0,123000.0,100.0,3.0,2325000.0,23.3,9975000.0,,,,
116,2095513,Pontonjärgatan 5,1935.0,,,,Lägenhet,Kungsholmen,Slutpris,11.0,2016-05-17,59.328354,18.037504,/bostad/804546,SoldProperty,2725000,0.5,100926.0,27.0,1.0,730000.0,36.6,1995000.0,,,,
117,2125429,Industrigatan 9,1933.0,,,,Lägenhet,Kungsholmen,Slutpris,12.0,2016-06-22,59.33674,18.029713,/annons/2125429,SoldProperty,4420000,3.0,72459.0,61.0,2.0,425000.0,10.6,3995000.0,,,,
118,2134103,Brännerigatan 5,1926.0,,,,Lägenhet,Södermalm,Slutpris,13.0,2016-07-13,59.3106,18.080416,/annons/2134103,SoldProperty,4260000,3.5,103902.0,41.0,2.0,1265000.0,42.2,2995000.0,,,,
119,2143275,Kungsholms Hamnplan 3A,1911.0,,,,Lägenhet,Kungsholmen,Slutpris,14.0,2016-08-09,59.3272826,18.04588611,/annons/2143275,SoldProperty,3250000,0.5,108333.0,30.0,1.0,1000000.0,44.4,2250000.0,,,,
120,2146711,Sankt Eriksgatan 2,1927.0,,,,Lägenhet,Kungsholmen,Slutpris,14.0,2016-08-17,59.328947,18.0290637,/annons/2146711,SoldProperty,4760000,3.0,83509.0,57.0,2.0,760000.0,19.0,4000000.0,,,,
121,2144501,Ehrensvärdsgatan 4,1931.0,,,,Lägenhet,Kungsholmen,Slutpris,19.0,2016-08-17,59.328335,18.03432,/annons/2144501,SoldProperty,3720000,3.0,90732.0,41.0,2.0,725000.0,24.2,2995000.0,,,,
122,2165492,Industrigatan 7A,1941.0,,,,Lägenhet,Kungsholmen,Slutpris,13.0,2016-09-14,59.33648,18.030367,/bostad/131899,SoldProperty,3450000,4.0,82143.0,42.0,2.0,700000.0,25.5,2750000.0,,,,
123,2177306,Sven Rinmans gata 3,1931.0,,,,Lägenhet,Kungsholmen,Slutpris,11.0,2016-09-27,59.3289865,18.0299616,/annons/2177306,SoldProperty,7600000,5.0,95000.0,80.0,3.5,605000.0,8.6,6995000.0,,,,
124,2188056,Hantverkargatan 46,1884.0,,,,Lägenhet,Kungsholmen,Slutpris,12.0,2016-10-12,59.329758,18.038185,/annons/2188056,SoldProperty,2825000,1.0,100893.0,28.0,1.0,830000.0,41.6,1995000.0,,,,
125,2188051,Lagerlöfsgatan 8,1942.0,,,,Lägenhet,Kungsholmen,Slutpris,13.0,2016-10-13,59.3298567,18.01876903,/annons/2188051,SoldProperty,3820000,0.5,73462.0,52.0,2.0,525000.0,15.9,3295000.0,,,,
126,2198111,Lagerlöfsgatan 8,1942.0,,,,Lägenhet,Kungsholmen,Slutpris,12.0,2016-10-26,59.3298567,18.01876903,/annons/2198111,SoldProperty,5700000,1.0,80282.0,71.0,3.0,705000.0,14.1,4995000.0,,,,
127,2198870,Bergsgatan 51,1963.0,,,,Lägenhet,Kungsholmen,Slutpris,12.0,2016-10-26,59.3306662,18.0371541,/annons/2198870,SoldProperty,3220000,3.0,94706.0,34.0,1.5,725000.0,29.1,2495000.0,,,,
128,2200775,Åsögatan 182,1943.0,,,,Lägenhet,Södermalm,Slutpris,15.0,2016-11-03,59.314552,18.089264,/annons/2200775,SoldProperty,3520000,1.0,88000.0,40.0,2.0,525000.0,17.5,2995000.0,,,,
129,2021646,Lustgårdsgatan 3,2012.0,,,,Lägenhet,Kungsholmen,Slutpris,20.0,2016-02-03,59.335896,18.0132021,/annons/2021646,SoldProperty,4200000,5.0,75000.0,56.0,2.0,475000.0,12.8,3725000.0,,,,
130,2176773,Riddargatan 54A,1883.0,,,,Lägenhet,Östermalm,Slutpris,14.0,2016-09-30,59.33246786,18.08589548,/annons/2176773,SoldProperty,5300000,4.0,108163.0,49.0,2.0,450000.0,9.3,4850000.0,,,,
131,2199575,Karlavägen 4,1994.0,,,,Lägenhet,Östermalm,Slutpris,5.0,2016-10-22,59.34444586,18.06423417,/bostad/140878,SoldProperty,6010000,6.0,105439.0,57.0,2.0,1060000.0,21.4,4950000.0,,,,
132,2205250,Narvavägen 18,1896.0,,,,Lägenhet,Östermalm,Slutpris,14.0,2016-11-09,59.33541719,18.09182949,/bostad/695204,SoldProperty,3250000,1.0,154762.0,21.0,1.0,500000.0,18.2,2750000.0,,,,
133,2212338,Nybrogatan 14,1914.0,,,,Lägenhet,Östermalmstorg,Slutpris,11.0,2016-11-18,59.334578,18.0774672,/annons/2212338,SoldProperty,6850000,1.0,124545.0,55.0,2.0,1600000.0,30.5,5250000.0,,,,
134,2217316,Karlavägen 53,1959.0,,,,Lägenhet,Östermalm,Slutpris,15.0,2016-12-01,59.340282,18.078411,/bostad/424363,SoldProperty,14500000,5.0,100694.0,144.0,5.5,2550000.0,21.3,11950000.0,,,,
135,2093088,Döbelnsgatan 47,1929.0,,,,Lägenhet,Vasastan,Slutpris,37.0,2016-12-08,59.341896,18.060442,/bostad/343214,SoldProperty,5300000,1.0,81538.0,65.0,2.0,100000.0,1.9,5200000.0,,,,
136,2208330,Grevgatan 6A,1896.0,,,,Lägenhet,Östermalm,Slutpris,41.0,2016-12-12,59.33222452,18.08415443,/bostad/321419,SoldProperty,7300000,3.0,108955.0,67.0,3.0,400000.0,5.8,6900000.0,,,,
137,2202091,Oxenstiernsgatan 33,1955.0,,,,Lägenhet,Östermalm,Slutpris,56.0,2016-12-16,59.33704102,18.10182508,/annons/2202091,SoldProperty,7725000,3.0,89826.0,86.0,4.0,-125000.0,-1.6,7850000.0,,,,
138,2232178,Riddargatan 60,1888.0,,,,Lägenhet,Östermalm,Slutpris,0.0,2016-12-19,59.3323354,18.0873504,/annons/2232178,SoldProperty,23125000,1.0,115050.0,201.0,6.0,,,,,,,
139,2021896,Disponentgatan 1,1935.0,,,,Lägenhet,Kungsholmen Lilla Essingen,Slutpris,20.0,2016-02-10,59.32457729,18.00793914,/bostad/588659,SoldProperty,2850000,0.5,81429.0,35.0,2.0,555000.0,24.2,2295000.0,,,,
140,3968984,Skeppargatan 28,1940.0,,,,Lägenhet,Östermalm,Slutpris,0.0,2016-09-06,59.33445067,18.08375373,/annons/3968984,SoldProperty,3610000,4.0,138846.0,26.0,1.5,,,,,,,
141,2019180,Kristinehovsgatan 5B,1941.0,,,,Lägenhet,Södermalm-Högalid,Slutpris,14.0,2016-01-22,59.3182,18.0422,/annons/2019180,SoldProperty,5100000,4.0,91071.0,56.0,2.0,850000.0,20.0,4250000.0,,,,
142,2050974,Maria Bangata 9,1988.0,,,,Lägenhet,Södermalm-Högalid,Slutpris,15.0,2016-03-19,59.31389,18.05409,/bostad/669991,SoldProperty,4340000,3.0,73559.0,59.0,2.0,790000.0,22.3,3550000.0,,,,
143,2054623,Helgagatan 36F,1926.0,,,,Lägenhet,Södermalm-Katarina,Slutpris,12.0,2016-03-23,59.3096442,18.06970808,/annons/2054623,SoldProperty,4625000,1.0,88942.0,52.0,2.0,1050000.0,29.4,3575000.0,,,,
144,2067431,Helgagatan 36D,1926.0,,,,Lägenhet,Södermalm-Katarina,Slutpris,18.0,2016-04-19,59.309383,18.069979,/bostad/305530,SoldProperty,5410000,1.5,84531.0,64.0,2.0,1035000.0,23.7,4375000.0,,,,
145,2095743,Hornsgatan 33A,1906.0,,,,Lägenhet,Södermalm-Maria,Slutpris,17.0,2016-05-23,59.31864124,18.06190972,/annons/2095743,SoldProperty,9200000,2.0,78632.0,117.0,3.0,700000.0,8.2,8500000.0,,,,
146,2102653,Magnus Ladulåsgatan 7,1987.0,,,,Lägenhet,Södermalm-Maria,Slutpris,27.0,2016-06-09,59.31192,18.060518,/annons/2102653,SoldProperty,6100000,3.0,70930.0,86.0,4.0,1105000.0,22.1,4995000.0,,,,
147,2102915,Helgagatan 36F,1926.0,,,,Lägenhet,Södermalm-Katarina,Slutpris,28.0,2016-06-10,59.3096442,18.06970808,/annons/2102915,SoldProperty,3150000,1.5,82895.0,38.0,1.0,475000.0,17.8,2675000.0,,,,
148,2157005,Maria Bangata 17,1989.0,,,,Lägenhet,Södermalm-Högalid,Slutpris,14.0,2016-09-02,59.31409,18.052912,/bostad/669975,SoldProperty,4600000,9.0,77966.0,59.0,2.0,1125000.0,32.4,3475000.0,,,,
149,2166375,Hornsgatan 151,1931.0,,,,Lägenhet,Södermalm-Högalid,Slutpris,14.0,2016-09-16,59.3149478,18.0324958,/annons/2166375,SoldProperty,6350000,6.0,102419.0,62.0,2.0,1355000.0,27.1,4995000.0,,,,
150,2177339,Blekingegatan 61A,1904.0,,,,Lägenhet,Södermalm-Katarina,Slutpris,14.0,2016-09-30,59.311024,18.07623,/bostad/161722,SoldProperty,6750000,1.5,80357.0,84.0,4.0,475000.0,7.6,6275000.0,,,,
151,2188734,Assessorsgatan 18D,1924.0,,,,Lägenhet,Södermalm-Katarina,Slutpris,14.0,2016-10-14,59.30884048,18.06811081,/annons/2188734,SoldProperty,7670000,4.0,93537.0,82.0,4.0,1295000.0,20.3,6375000.0,,,,
152,2188535,Ringvägen 33,1988.0,,,,Lägenhet,Södermalm-Högalid,Slutpris,14.0,2016-10-14,59.31355,18.053177,/bostad/2157112,SoldProperty,3635000,2.0,69904.0,52.0,2.0,460000.0,14.5,3175000.0,,,,
153,2202761,Hornsgatan 113,1970.0,,,,Lägenhet,Södermalm-Högalid,Slutpris,14.0,2016-11-04,59.31592029,18.04020524,/annons/2202761,SoldProperty,4850000,4.0,71324.0,68.0,3.0,550000.0,12.8,4300000.0,,,,
154,2207010,Assessorsgatan 18C,1924.0,,,,Lägenhet,Södermalm-Katarina,Slutpris,14.0,2016-11-12,59.3087528,18.06842191,/annons/2207010,SoldProperty,6030000,5.0,86143.0,70.0,2.5,655000.0,12.2,5375000.0,,,,
155,2219641,Maria Bangata 13,1988.0,,,,Lägenhet,Södermalm-Högalid,Slutpris,14.0,2016-12-02,59.3141084,18.0533569,/annons/2219641,SoldProperty,4680000,4.0,70909.0,66.0,3.0,530000.0,12.8,4150000.0,,,,
156,2226544,Maria Bangata 17,1988.0,,,,Lägenhet,Södermalm-Högalid,Slutpris,15.0,2016-12-17,59.31409,18.052912,/bostad/669964,SoldProperty,4700000,6.0,82456.0,57.0,2.0,700000.0,17.5,4000000.0,,,,
157,2203208,Floragatan 10,1962.0,,,,Lägenhet,Östermalm,Slutpris,1.0,2016-10-22,59.3425063,18.0758912,/bostad/345940,SoldProperty,9550000,2.0,113690.0,84.0,3.0,1600000.0,20.1,7950000.0,,,,
158,2192231,Strindbergsgatan 53,1934.0,,,,Lägenhet,Östermalm,Slutpris,55.0,2016-12-01,59.34103717,18.09552229,/bostad/2084854,SoldProperty,6000000,,83333.0,72.0,3.0,0.0,0.0,6000000.0,,,,
159,2231439,Gumshornsgatan 12,1931.0,,,,Lägenhet,Östermalm,Slutpris,3.0,2016-12-19,59.33582012,18.09005184,/annons/2231439,SoldProperty,3520000,4.0,135385.0,26.0,1.0,770000.0,28.0,2750000.0,,,,
160,2017251,Roslagsgatan 54A,1905.0,,,,Lägenhet,Vasastan,Slutpris,24.0,2016-01-28,59.35012,18.05706,/bostad/398855,SoldProperty,4150000,3.0,84694.0,49.0,2.0,300000.0,7.8,3850000.0,,,,
161,2175519,Tomtebogatan 53,1909.0,,,,Lägenhet,Vasastan Birkastan,Slutpris,22.0,2016-10-07,59.34238143,18.02705412,/bostad/399764,SoldProperty,7400000,1.5,83146.0,89.0,3.0,-100000.0,-1.3,7500000.0,,,,
162,2183397,Sara Lidmans gata 6,,,,,Lägenhet,Kungsholmen-Hornsbergs Strand,Slutpris,15.0,2016-10-08,59.338337,18.0032019,/bostad/437731,SoldProperty,7700000,6.0,79793.0,96.5,4.0,-50000.0,-0.6,7750000.0,,,,
163,2033696,Ulriksborgsgatan 7,,,,,Lägenhet,Kungsholmen,Slutpris,13.0,2016-02-18,59.3347289,18.0172089,/annons/2033696,SoldProperty,5275000,5.0,74296.0,71.0,3.0,800000.0,17.9,4475000.0,,,,
164,2016253,Sankt Eriksgatan 2,1927.0,,,,Lägenhet,Kungsholmen,Slutpris,50.0,2016-02-18,59.328947,18.0290637,/annons/2016253,SoldProperty,4460000,1.0,69688.0,64.0,2.0,-440000.0,-9.0,4900000.0,,,,
165,2035506,Sankt Göransgatan 98,1993.0,,,,Lägenhet,Kungsholmen,Slutpris,16.0,2016-02-26,59.3341856,18.0261975,/bostad/68726,SoldProperty,5250000,4.0,78358.0,67.0,3.0,655000.0,14.3,4595000.0,,,,
166,2045254,Kungsholms Strand 143,1934.0,,,,Lägenhet,Kungsholmen,Slutpris,39.0,2016-04-05,59.33739463,18.03030082,/bostad/646559,SoldProperty,3700000,5.0,80435.0,46.0,2.0,25000.0,0.7,3675000.0,,,,
167,2043029,Gaveliusgatan 6,1932.0,,,,Lägenhet,Södermalm,Slutpris,38.0,2016-04-01,59.30932792,18.09350279,/annons/2043029,SoldProperty,6100000,1.0,78205.0,78.0,3.0,625000.0,11.4,5475000.0,,,,
168,2049437,Kungsholmstorg 3A,1984.0,,,,Lägenhet,Kungsholmen,Slutpris,14.0,2016-03-17,59.3271884,18.0408633,/bostad/390620,SoldProperty,7500000,4.0,93750.0,80.0,3.0,625000.0,9.1,6875000.0,,,,
169,2066940,Völundsgatan 7,1928.0,,,,Lägenhet,Vasastan,Slutpris,11.0,2016-04-12,59.33841496,18.03837992,/bostad/794671,SoldProperty,3325000,1.0,89865.0,37.0,1.5,350000.0,11.8,2975000.0,,,,
170,2072200,Norr Mälarstrand 94,1939.0,,,,Lägenhet,Kungsholmen,Slutpris,14.0,2016-04-22,59.3304322,18.0256194,/annons/2072200,SoldProperty,5000000,1.0,71429.0,70.0,3.0,125000.0,2.6,4875000.0,,,,
171,2045273,Gamla Brogatan 25,1745.0,,,,Lägenhet,Centrum,Slutpris,63.0,2016-04-29,59.3335236,18.0585422,/annons/2045273,SoldProperty,6700000,3.0,65686.0,102.0,4.0,-200000.0,-2.9,6900000.0,,,,
172,2090643,Idungatan 6,1905.0,,,,Lägenhet,Vasastan,Slutpris,17.0,2016-05-19,59.34827361,18.04752281,/annons/2090643,SoldProperty,3540000,4.0,107273.0,33.0,2.0,565000.0,19.0,2975000.0,,,,
173,2098017,Birger Jarlsgatan 83,1918.0,,,,Lägenhet,Vasastan,Slutpris,17.0,2016-05-27,59.34630196,18.06211422,/annons/2098017,SoldProperty,11500000,3.0,70552.0,163.0,5.0,-500000.0,-4.2,12000000.0,,,,
174,2106032,Fatburs Kvarngata 17,1991.0,,,,Lägenhet,Södermalm,Slutpris,14.0,2016-06-01,59.3133151,18.0601753,/annons/2106032,SoldProperty,3350000,1.0,65686.0,51.0,1.0,475000.0,16.5,2875000.0,,,,
175,2111568,Norr Mälarstrand 94,1939.0,,,,Lägenhet,Kungsholmen,Slutpris,9.0,2016-06-02,59.3304322,18.0256194,/bostad/683821,SoldProperty,7450000,3.0,93125.0,80.0,3.0,1475000.0,24.7,5975000.0,,,,
176,2112769,Fatburs Kvarngata 4,1991.0,,,,Lägenhet,Södermalm,Slutpris,14.0,2016-06-08,59.3125595,18.0584146,/annons/2112769,SoldProperty,3000000,1.0,65217.0,46.0,1.0,525000.0,21.2,2475000.0,,,,
177,2146203,Sven Rinmans gata 4,1930.0,,,,Lägenhet,Kungsholmen,Slutpris,15.0,2016-08-17,59.3289166,18.030396,/bostad/758017,SoldProperty,4125000,1.0,75000.0,55.0,2.0,150000.0,3.8,3975000.0,,,,
178,2146394,Torsgatan 78,1930.0,,,,Lägenhet,Vasastan,Slutpris,23.0,2016-08-26,59.34537824,18.03465574,/bostad/770160,SoldProperty,4700000,1.0,66197.0,71.0,3.0,-200000.0,-4.1,4900000.0,,,,
179,2178936,Helgalunden 1,1929.0,,,,Lägenhet,Södermalm,Slutpris,17.0,2016-10-01,59.310318,18.069971,/annons/2178936,SoldProperty,8200000,3.0,73214.0,112.0,5.0,300000.0,3.8,7900000.0,,,,
180,2193153,Tegnérgatan 7,1891.0,,,,Lägenhet,Vasastan,Slutpris,12.0,2016-10-19,59.3404857,18.06395,/bostad/765069,SoldProperty,4720000,2.0,102609.0,46.0,2.0,0.0,0.0,4720000.0,,,,
181,2178523,Östhammarsgatan 67,1944.0,,,,Lägenhet,Gärdet,Slutpris,15.0,2016-10-04,59.34357476,18.11150575,/annons/2178523,SoldProperty,8300000,2.5,76147.0,109.0,4.5,800000.0,10.7,7500000.0,,,,
182,2204164,Pontonjärgatan 27,1932.0,,,,Lägenhet,Kungsholmen,Slutpris,23.0,2016-11-17,59.3288044,18.0333253,/annons/2204164,SoldProperty,5225000,1.0,90086.0,58.0,2.0,630000.0,13.7,4595000.0,,,,
183,2206059,Sankt Göransgatan 131,2006.0,,,,Lägenhet,Kungsholmen,Slutpris,14.0,2016-11-11,59.334274,18.023949,/annons/2206059,SoldProperty,5600000,2.0,76190.0,73.5,3.0,225000.0,4.2,5375000.0,,,,
184,2186592,Norr Mälarstrand 100,,,,,Lägenhet,Kungsholmen,Slutpris,53.0,2016-11-20,59.330395,18.024591,/bostad/683401,SoldProperty,10200000,5.0,89474.0,114.0,4.0,-400000.0,-3.8,10600000.0,,,,
185,2215272,Coldinutrappan 3,1926.0,,,,Lägenhet,Kungsholmen,Slutpris,14.0,2016-11-25,59.3302607,18.0447671,/bostad/584799,SoldProperty,7900000,3.0,89773.0,88.0,3.0,925000.0,13.3,6975000.0,,,,
186,2196888,Baltzar von Platens gata 4,1932.0,,,,Lägenhet,Kungsholmen,Slutpris,60.0,2016-12-12,59.32849254,18.03170573,/bostad/421935,SoldProperty,4195000,0.5,87396.0,48.0,2.0,220000.0,5.5,3975000.0,,,,
187,2226415,Wargentinsgatan 4,1905.0,,,,Lägenhet,Kungsholmen,Slutpris,19.0,2016-12-21,59.3324616,18.0409045,/annons/2226415,SoldProperty,12475000,,98228.0,127.0,3.5,-225000.0,-1.8,12700000.0,,,,
188,2227515,Skeppargatan 58,1924.0,,,,Lägenhet,Östermalm,Slutpris,10.0,2016-12-16,59.337786,18.0861209,/bostad/732941,SoldProperty,6675000,1.0,99627.0,67.0,2.0,0.0,0.0,6675000.0,,,,
189,2218449,Helgalunden 1,1929.0,,,,Lägenhet,Södermalm,Slutpris,26.0,2016-12-13,59.310318,18.069971,/annons/2218449,SoldProperty,4650000,2.0,80172.0,58.0,2.0,475000.0,11.4,4175000.0,,,,
190,2219233,Lidnersplan 12,1938.0,,,,Lägenhet,Kungsholmen,Slutpris,7.0,2016-11-25,59.33604859,17.99797797,/bostad/498772,SoldProperty,5700000,2.0,89063.0,64.0,3.0,910000.0,19.0,4790000.0,,,,
191,2202346,Elersvägen 44,2012.0,,,,Lägenhet,Hornsbergs Strand,Slutpris,48.0,2016-11-29,59.33812,18.002506,/bostad/437641,SoldProperty,8250000,2.0,77830.0,106.0,4.0,100000.0,1.2,8150000.0,,,,
192,2014695,Järntorget 85,,,,,Lägenhet,Gamla Stan,Slutpris,28.0,2016-03-24,59.32292429,18.07335471,/annons/2014695,SoldProperty,4200000,1.0,123529.0,34.0,3.0,705000.0,20.2,3495000.0,,,,
193,2177167,Hälsingegatan 15,1893.0,,,,Lägenhet,Vasastan,Slutpris,12.0,2016-09-28,59.342396,18.042624,/annons/2177167,SoldProperty,5250000,1.0,93750.0,56.0,2.0,400000.0,8.2,4850000.0,,,,
194,2183260,Dalagatan 38A,1885.0,,,,Lägenhet,Vasastan,Slutpris,1.0,2016-09-24,59.34070738,18.04735062,/bostad/585040,SoldProperty,2825000,0.0,134524.0,21.0,1.0,730000.0,34.8,2095000.0,,,,
195,2161454,Rådmansgatan 78,,,,,Lägenhet,Vasastan,Slutpris,11.0,2016-09-06,59.33875744,18.05198838,/bostad/714390,SoldProperty,4650000,,93000.0,50.0,2.0,655000.0,16.4,3995000.0,,,,
196,2094218,Tobaksspinnargatan 10,1932.0,,,,Lägenhet,Södermalm,Slutpris,26.0,2016-07-26,59.3174141,18.0307912,/annons/2094218,SoldProperty,3150000,1.0,78750.0,40.0,1.5,355000.0,12.7,2795000.0,,,,
197,2198388,Ringvägen 122,1964.0,,,,Lägenhet,Södermalm Sofia,Slutpris,15.0,2016-10-29,59.30812304,18.08108154,/annons/2198388,SoldProperty,2600000,5.0,118182.0,22.0,1.0,605000.0,30.3,1995000.0,,,,
198,2177127,Heleneborgsgatan 27,1914.0,,,,Lägenhet,Södermalm Hornstull,Slutpris,13.0,2016-09-29,59.318672,18.032799,/bostad/431297,SoldProperty,5000000,1.0,79365.0,63.0,2.0,750000.0,17.6,4250000.0,,,,
199,2207157,Lilla Nygatan 16,1741.0,,,,Lägenhet,Gamla Stan,Slutpris,27.0,2016-11-25,59.323402,18.069164,/annons/2207157,SoldProperty,3400000,2.0,154545.0,22.0,1.5,0.0,0.0,3400000.0,,,,
200,2203108,Högalidsgatan 50,1926.0,,,,Lägenhet,Södermalm Hornstull,Slutpris,12.0,2016-11-30,59.31816,18.034252,/bostad/126735,SoldProperty,3850000,2.0,96250.0,40.0,2.0,700000.0,22.2,3150000.0,,,,
201,2170129,Tengdahlsgatan 41,1997.0,,,,Lägenhet,Södermalm Norra Hammarbyhamnen,Slutpris,25.0,2016-11-29,59.3096671,18.0981366,/bostad/764555,SoldProperty,3750000,1.0,60976.0,61.5,2.0,255000.0,7.3,3495000.0,,,,
202,2098597,Kocksgatan 41,1918.0,,,,Lägenhet,Södermalm,Slutpris,8.0,2016-05-19,59.31473273,18.08268727,/annons/2098597,SoldProperty,4550000,2.0,79825.0,57.0,2.0,400000.0,9.6,4150000.0,,,,
203,2079151,Brännerigatan 5,1929.0,,,,Lägenhet,Södermalm,Slutpris,12.0,2016-04-28,59.3106,18.080416,/annons/2079151,SoldProperty,3825000,1.5,76500.0,50.0,1.5,830000.0,27.7,2995000.0,,,,
204,2081144,Götgatan 102,1983.0,,,,Lägenhet,Södermalm,Slutpris,13.0,2016-05-03,59.3081016,18.0740143,/annons/2081144,SoldProperty,6210000,5.0,78608.0,79.0,3.0,1260000.0,25.5,4950000.0,,,,
205,2064872,Kocksgatan 41,1918.0,,,,Lägenhet,Södermalm,Slutpris,17.0,2016-04-15,59.31473273,18.08268727,/annons/2064872,SoldProperty,4600000,2.0,86792.0,53.0,2.0,350000.0,8.2,4250000.0,,,,
206,2099883,Hornsgatan 178,1883.0,,,,Lägenhet,Södermalm,Slutpris,28.0,2016-06-09,59.31527,18.032757,/bostad/438935,SoldProperty,7975000,2.0,90625.0,88.0,4.0,0.0,0.0,7975000.0,,,,
207,2125527,Skånegatan 57,1904.0,,,,Lägenhet,Södermalm,Slutpris,19.0,2016-06-30,59.312256,18.078827,/annons/2125527,SoldProperty,4200000,,79245.0,53.0,2.0,205000.0,5.1,3995000.0,,,,
208,2130828,Malmgårdsvägen 28,1930.0,,,,Lägenhet,Södermalm,Slutpris,13.0,2016-07-05,59.30904304,18.09042537,/bostad/668116,SoldProperty,3250000,2.0,85526.0,38.0,1.0,500000.0,18.2,2750000.0,,,,
209,2131503,Katarina Bangata 56,1905.0,,,,Lägenhet,Södermalm,Slutpris,14.0,2016-07-07,59.310677,18.082998,/bostad/154302,SoldProperty,4000000,1.0,84211.0,47.5,2.0,250000.0,6.7,3750000.0,,,,
210,2147751,Skånegatan 57,1904.0,,,,Lägenhet,Södermalm,Slutpris,8.0,2016-08-12,59.312256,18.078827,/annons/2147751,SoldProperty,8200000,3.0,88172.0,93.0,3.0,1205000.0,17.2,6995000.0,,,,
211,2152302,Brännkyrkagatan 91,1969.0,,,,Lägenhet,Södermalm,Slutpris,14.0,2016-08-26,59.3180203,18.0509928,/annons/2152302,SoldProperty,4625000,4.0,67029.0,69.0,2.0,630000.0,15.8,3995000.0,,,,
212,2156905,Grindsgatan 31,1929.0,,,,Lägenhet,Södermalm,Slutpris,15.0,2016-09-03,59.30986992,18.06708886,/annons/2156905,SoldProperty,3200000,5.0,80000.0,40.0,1.5,205000.0,6.8,2995000.0,,,,
213,2125468,Malmgårdsvägen 30L,2005.0,,,,Lägenhet,Södermalm,Slutpris,22.0,2016-09-03,59.30856,18.09158,/annons/2125468,SoldProperty,6350000,5.0,68280.0,93.0,3.0,0.0,0.0,6350000.0,,,,
214,2171587,Möregatan 10,1936.0,,,,Lägenhet,Södermalm,Slutpris,8.0,2016-09-16,59.311604,18.069942,/annons/2171587,SoldProperty,2900000,2.0,100000.0,29.0,1.0,605000.0,26.4,2295000.0,,,,
215,2171995,Timmermansgatan 39,1908.0,,,,Lägenhet,Södermalm,Slutpris,12.0,2016-09-21,59.3145835,18.062022,/bostad/575699,SoldProperty,4950000,1.0,70917.0,69.8,2.0,200000.0,4.2,4750000.0,,,,
216,2156964,Lundagatan 37,1904.0,,,,Lägenhet,Södermalm,Slutpris,34.0,2016-09-22,59.318363,18.04704,/bostad/663671,SoldProperty,3400000,,82927.0,41.0,1.0,405000.0,13.5,2995000.0,,,,
217,2183381,Bondegatan 80,1940.0,,,,Lägenhet,Södermalm,Slutpris,14.0,2016-10-07,59.313522,18.091066,/bostad/589975,SoldProperty,4300000,4.0,86000.0,50.0,2.0,705000.0,19.6,3595000.0,,,,
218,2193669,Vindragarvägen 4,1945.0,,,,Lägenhet,Södermalm,Slutpris,21.0,2016-10-28,59.31858,18.019875,/annons/2193669,SoldProperty,4660000,1.5,75161.0,62.0,2.0,410000.0,9.6,4250000.0,,,,
219,2198386,Kocksgatan 41,1918.0,,,,Lägenhet,Södermalm,Slutpris,16.0,2016-10-30,59.31473273,18.08268727,/bostad/637349,SoldProperty,4400000,3.0,83019.0,53.0,2.0,250000.0,6.0,4150000.0,,,,
220,2188268,Malmgårdsvägen 28,1930.0,,,,Lägenhet,Södermalm,Slutpris,12.0,2016-10-12,59.30904304,18.09042537,/bostad/668138,SoldProperty,3450000,5.0,101471.0,34.0,1.0,500000.0,16.9,2950000.0,,,,
221,2018071,Dannemoragatan 18,1947.0,,,,Lägenhet,Vasastan,Slutpris,11.0,2016-01-16,59.34882,18.043947,/annons/2018071,SoldProperty,4500000,4.0,80357.0,56.0,2.0,305000.0,7.3,4195000.0,,,,
222,2012592,Birkagatan 26,1904.0,,,,Lägenhet,Vasastan,Slutpris,13.0,2016-01-21,59.34093734,18.03547221,/annons/2012592,SoldProperty,2925000,,100862.0,29.0,1.0,330000.0,12.7,2595000.0,,,,
223,1995975,Sankt Eriksgatan 72,1928.0,,,,Lägenhet,Vasastan,Slutpris,14.0,2016-02-11,59.338646,18.036161,/annons/1995975,SoldProperty,4975000,1.5,87281.0,57.0,2.0,480000.0,10.7,4495000.0,,,,
224,2028005,Dannemoragatan 18,1947.0,,,,Lägenhet,Vasastan,Slutpris,16.0,2016-02-11,59.34882,18.043947,/annons/2028005,SoldProperty,3500000,4.0,94595.0,37.0,2.0,505000.0,16.9,2995000.0,,,,
225,2063756,Birkagatan 15,1912.0,,,,Lägenhet,Vasastan,Slutpris,13.0,2016-04-06,59.3401748,18.0345466,/bostad/421661,SoldProperty,6600000,3.0,104762.0,63.0,2.0,1305000.0,24.6,5295000.0,,,,
226,2067560,Sveavägen 95,1926.0,,,,Lägenhet,Vasastan,Slutpris,11.0,2016-04-13,59.34561996,18.052876,/bostad/304781,SoldProperty,3440000,1.5,101176.0,34.0,2.0,490000.0,16.6,2950000.0,,,,
227,2067714,Rörstrandsgatan 40,1908.0,,,,Lägenhet,Vasastan,Slutpris,12.0,2016-04-14,59.34112317,18.02848932,/annons/2067714,SoldProperty,3750000,,83333.0,45.0,2.0,300000.0,8.7,3450000.0,,,,
228,2072876,Upplandsgatan 49,1971.0,,,,Lägenhet,Vasastan,Slutpris,12.0,2016-04-21,59.341682,18.0493,/annons/2072876,SoldProperty,3290000,2.0,113448.0,29.0,1.0,840000.0,34.3,2450000.0,,,,
229,2102991,Sigtunagatan 14A,1902.0,,,,Lägenhet,Vasastan,Slutpris,11.0,2016-05-25,59.34198696,18.04181696,/bostad/726312,SoldProperty,4400000,2.0,112821.0,39.0,2.0,1005000.0,29.6,3395000.0,,,,
230,2125303,Vanadisvägen 31B,1912.0,,,,Lägenhet,Vasastan,Slutpris,11.0,2016-06-21,59.345573,18.042847,/bostad/783613,SoldProperty,2770000,5.0,115417.0,24.0,1.0,620000.0,28.8,2150000.0,,,,
231,2113702,Roslagsgatan 53,1929.0,,,,Lägenhet,Vasastan,Slutpris,10.0,2016-08-11,59.3497971,18.056227,/bostad/711997,SoldProperty,3250000,4.0,98485.0,33.0,1.5,455000.0,16.3,2795000.0,,,,
232,2148309,Torsgatan 68,1926.0,,,,Lägenhet,Vasastan,Slutpris,11.0,2016-08-17,59.34445,18.035221,/bostad/717097,SoldProperty,2800000,3.0,107692.0,26.0,1.0,550000.0,24.4,2250000.0,,,,
233,2148199,Upplandsgatan 87,1908.0,,,,Lägenhet,Vasastan,Slutpris,11.0,2016-08-17,59.3459851,18.0449791,/bostad/780397,SoldProperty,3500000,2.0,102941.0,34.0,1.0,750000.0,27.3,2750000.0,,,,
234,2152672,Wallingatan 16A,1872.0,,,,Lägenhet,Vasastan,Slutpris,12.0,2016-08-24,59.33719,18.05643,/bostad/794784,SoldProperty,3350000,1.0,95714.0,35.0,1.0,400000.0,13.6,2950000.0,,,,
235,2161548,Völundsgatan 3,1929.0,,,,Lägenhet,Vasastan,Slutpris,15.0,2016-09-10,59.33797,18.03814,/annons/2161548,SoldProperty,2750000,0.5,85938.0,32.0,1.0,255000.0,10.2,2495000.0,,,,
236,2165619,Karlbergsvägen 82A,1913.0,,,,Lägenhet,Vasastan,Slutpris,13.0,2016-09-22,59.34326,18.028776,/annons/2165619,SoldProperty,5820000,1.5,103929.0,56.0,2.0,970000.0,20.0,4850000.0,,,,
237,2171372,Vidargatan 2,1906.0,,,,Lägenhet,Vasastan,Slutpris,17.0,2016-09-26,59.34427974,18.04917455,/bostad/685741,SoldProperty,5900000,2.0,95935.0,61.5,2.0,450000.0,8.3,5450000.0,,,,
238,2174763,Frejgatan 18,1940.0,,,,Lägenhet,Vasastan,Slutpris,14.0,2016-09-30,59.347622,18.057693,/annons/2174763,SoldProperty,3460000,3.0,88718.0,39.0,2.0,210000.0,6.5,3250000.0,,,,
239,2097324,Gästrikegatan 22,1899.0,,,,Lägenhet,Vasastan,Slutpris,7.0,2016-09-30,59.3421574,18.03916973,/annons/2097324,SoldProperty,6150000,1.5,97619.0,63.0,2.0,800000.0,15.0,5350000.0,,,,
240,2177379,Dalagatan 90,1924.0,,,,Lägenhet,Vasastan,Slutpris,18.0,2016-10-04,59.34663,18.04093,/bostad/585921,SoldProperty,4875000,3.0,82627.0,59.0,2.0,425000.0,9.6,4450000.0,,,,
241,2202571,Observatoriegatan 21,1883.0,,,,Lägenhet,Vasastan,Slutpris,6.0,2016-10-26,59.33984,18.048456,/annons/2202571,SoldProperty,3975000,3.0,113571.0,35.0,1.0,1025000.0,34.7,2950000.0,,,,
242,2207054,Hagagatan 14,1905.0,,,,Lägenhet,Vasastan,Slutpris,12.0,2016-11-10,59.3451443,18.052062,/bostad/312827,SoldProperty,6300000,0.5,91304.0,69.0,3.0,505000.0,8.7,5795000.0,,,,
243,2210077,Markvardsgatan 11,1907.0,,,,Lägenhet,Vasastan,Slutpris,8.0,2016-11-11,59.343494,18.058018,/bostad/664533,SoldProperty,6500000,1.0,103175.0,63.0,3.0,1150000.0,21.5,5350000.0,,,,
244,2019136,Kronobergsgatan 18,1930.0,,,,Lägenhet,Kungsholmen,Slutpris,12.0,2016-01-20,59.33526879,18.03545232,/bostad/642455,SoldProperty,3150000,2.0,92647.0,34.0,1.0,355000.0,12.7,2795000.0,,,,
245,2074872,Disponentgatan 2,1937.0,,,,Lägenhet,Lilla Essingen,Slutpris,16.0,2016-04-28,59.3246955,18.0085057,/bostad/588611,SoldProperty,2400000,2.0,96000.0,25.0,1.0,505000.0,26.6,1895000.0,,,,
246,2008156,Kellgrensgatan 14,2011.0,,,,Lägenhet,Kungsholmen,Slutpris,49.0,2016-01-21,59.3361445,18.0144023,/bostad/485506,SoldProperty,5250000,1.0,64815.0,81.0,3.0,755000.0,16.8,4495000.0,,,,
247,2085508,Love Almqvists väg 4B,1935.0,,,,Lägenhet,Kungsholmen,Slutpris,17.0,2016-05-13,59.333748,18.003454,/bostad/371905,SoldProperty,3400000,5.0,76404.0,44.5,2.0,505000.0,17.4,2895000.0,,,,
248,2052695,Sankt Eriksgatan 9,1924.0,,,,Lägenhet,Kungsholmen,Slutpris,13.0,2016-03-21,59.32982,18.029404,/bostad/701416,SoldProperty,7650000,1.0,85000.0,90.0,3.0,655000.0,9.4,6995000.0,,,,
249,2091191,Sankt Paulsgatan 20,1939.0,,,,Lägenhet,Södermalm,Slutpris,17.0,2016-05-20,59.3179397,18.0654448,/bostad/575853,SoldProperty,3800000,3.0,95000.0,40.0,1.5,305000.0,8.7,3495000.0,,,,
250,2141750,Pipersgatan 9,1882.0,,,,Lägenhet,Kungsholmen,Slutpris,14.0,2016-08-03,59.32987461,18.04526464,/bostad/576297,SoldProperty,2450000,0.5,136111.0,18.0,1.0,700000.0,40.0,1750000.0,,,,
251,2191128,Renstiernas gata 27,1959.0,,,,Lägenhet,Södermalm,Slutpris,13.0,2016-10-18,59.3138592,18.084786,/bostad/706077,SoldProperty,4000000,4.0,97561.0,41.0,2.0,750000.0,23.1,3250000.0,,,,
252,2143385,Strålgatan 45,1939.0,,,,Lägenhet,Essingeöarna,Slutpris,17.0,2016-08-12,59.3244386,18.00338822,/bostad/752103,SoldProperty,3495000,0.5,53769.0,65.0,2.0,0.0,0.0,3495000.0,,,,
253,2092716,Blekingegatan 16,1973.0,,,,Lägenhet,Södermalm-Katarina,Slutpris,15.0,2016-05-19,59.30934149,18.06667963,/bostad/146282,SoldProperty,3780000,2.0,69358.0,54.5,2.0,285000.0,8.2,3495000.0,,,,
254,2100227,Hästholmsvägen 10,1945.0,,,,Lägenhet,Södermalm,Slutpris,28.0,2016-06-09,59.31359883,18.10369522,/annons/2100227,SoldProperty,2425000,1.0,105435.0,23.0,1.0,530000.0,28.0,1895000.0,,,,
255,2100258,Erstagatan 16,1929.0,,,,Lägenhet,Södermalm-Sofo,Slutpris,29.0,2016-06-10,59.31521,18.089941,/bostad/566377,SoldProperty,3450000,1.5,70408.0,49.0,1.5,55000.0,1.6,3395000.0,,,,
256,2027125,Flottbrovägen 25,1929.0,,,,Lägenhet,Essingeöarna,Slutpris,12.0,2016-02-04,59.322876,17.9902,/annons/2027125,SoldProperty,4500000,2.0,72581.0,62.0,2.5,550000.0,13.9,3950000.0,,,,
257,2032833,Eknäsvägen 8A,1941.0,,,,Lägenhet,Essingeöarna,Slutpris,13.0,2016-02-18,59.3240278,17.9895309,/annons/2032833,SoldProperty,6350000,,88194.0,72.0,3.0,1355000.0,27.1,4995000.0,,,,
258,2014526,Badstrandsvägen 26,1929.0,,,,Lägenhet,Essingeöarna,Slutpris,17.0,2016-02-19,59.3222471,17.9896433,/bostad/145931,SoldProperty,4360000,2.0,77857.0,56.0,2.5,865000.0,24.7,3495000.0,,,,
259,2044044,Segelbåtsvägen 12,1998.0,,,,Lägenhet,Essingeöarna,Slutpris,15.0,2016-03-11,59.3251087,17.993185,/annons/2044044,SoldProperty,4050000,4.0,69231.0,58.5,2.0,555000.0,15.9,3495000.0,,,,
260,2046880,Essingeringen 9,1939.0,,,,Lägenhet,Essingeöarna,Slutpris,17.0,2016-03-15,59.318996,17.992332,/bostad/568032,SoldProperty,8250000,1.0,87766.0,94.0,5.0,1755000.0,27.0,6495000.0,,,,
261,2045732,Badstrandsvägen 32,1939.0,,,,Lägenhet,Essingeöarna,Slutpris,20.0,2016-03-17,59.3215629,17.9892391,/annons/2045732,SoldProperty,5920000,2.0,81096.0,73.0,3.5,925000.0,18.5,4995000.0,,,,
262,2071950,Blanchegatan 18,1937.0,,,,Lägenhet,Gärdet,Slutpris,14.0,2016-04-22,59.34354,18.098297,/bostad/577109,SoldProperty,2950000,5.0,101724.0,29.0,1.5,655000.0,28.5,2295000.0,,,,
263,2068728,Stenkullavägen 25,1942.0,,,,Lägenhet,Essingeöarna,Slutpris,17.0,2016-04-22,59.3178587,17.9853191,/annons/2068728,SoldProperty,5100000,,80952.0,63.0,3.0,750000.0,17.2,4350000.0,,,,
264,2083353,Essingestråket 37,1939.0,,,,Lägenhet,Essingeöarna,Slutpris,22.0,2016-05-14,59.3205172,17.9835487,/annons/2083353,SoldProperty,5000000,1.0,65789.0,76.0,3.0,25000.0,0.5,4975000.0,,,,
265,2093104,Eknäsvägen 8A,1941.0,,,,Lägenhet,Essingeöarna,Slutpris,22.0,2016-05-26,59.3240278,17.9895309,/annons/2093104,SoldProperty,7900000,,74528.0,106.0,5.0,605000.0,8.3,7295000.0,,,,
266,2140800,Essingetorget 44,1937.0,,,,Lägenhet,Essingeöarna,Slutpris,27.0,2016-08-13,59.32049,17.987772,/bostad/39211,SoldProperty,5000000,-1.0,61350.0,81.5,3.5,5000.0,0.1,4995000.0,,,,
267,2121370,Essingestråket 34,1939.0,,,,Lägenhet,Essingeöarna,Slutpris,32.0,2016-07-06,59.3211931,17.9844473,/bostad/567895,SoldProperty,4670000,,74127.0,63.0,3.0,375000.0,8.7,4295000.0,,,,
268,2147007,Vänskapsvägen 42,1940.0,,,,Lägenhet,Essingeöarna,Slutpris,15.0,2016-08-19,59.32136706,17.98813699,/annons/2147007,SoldProperty,5695000,0.5,65686.0,86.7,4.0,0.0,0.0,5695000.0,,,,
269,2129716,Vänskapsvägen 36,1942.0,,,,Lägenhet,Essingeöarna,Slutpris,60.0,2016-08-19,59.3215497,17.9863834,/annons/2129716,SoldProperty,6310000,,70899.0,89.0,3.5,835000.0,15.3,5475000.0,,,,
270,2181489,Essingestråket 40,1938.0,,,,Lägenhet,Essingeöarna,Slutpris,15.0,2016-10-06,59.320953,17.983713,/annons/2181489,SoldProperty,4480000,2.0,80000.0,56.0,3.0,590000.0,15.2,3890000.0,,,,
271,2189331,Flottbrovägen 28,1947.0,,,,Lägenhet,Essingeöarna,Slutpris,17.0,2016-10-19,59.3230579,17.9894403,/annons/2189331,SoldProperty,5450000,2.0,65663.0,83.0,3.5,60000.0,1.1,5390000.0,,,,
272,2194036,Essingestråket 36,1939.0,,,,Lägenhet,Essingeöarna,Slutpris,11.0,2016-10-19,59.3214622,17.9844262,/annons/2194036,SoldProperty,3720000,1.0,75918.0,49.0,2.0,725000.0,24.2,2995000.0,,,,
273,2201863,Essingestråket 34,1939.0,,,,Lägenhet,Essingeöarna,Slutpris,14.0,2016-11-03,59.3211931,17.9844473,/annons/2201863,SoldProperty,3920000,1.0,70000.0,56.0,2.0,425000.0,12.2,3495000.0,,,,
274,2215496,Essingestråket 17,1939.0,,,,Lägenhet,Essingeöarna,Slutpris,12.0,2016-11-23,59.3198412,17.9882391,/annons/2215496,SoldProperty,2900000,2.0,90625.0,32.0,1.0,405000.0,16.2,2495000.0,,,,
275,2205622,Svedbergsplan 4,1943.0,,,,Lägenhet,Kungsholmen,Slutpris,20.0,2016-11-16,59.32794,18.01144,/annons/2205622,SoldProperty,4100000,4.0,78846.0,52.0,2.0,705000.0,20.8,3395000.0,,,,
276,2220108,Vänskapsvägen 55,1944.0,,,,Lägenhet,Essingeöarna,Slutpris,11.0,2016-11-30,59.3215612,17.9884158,/annons/2220108,SoldProperty,4200000,1.0,84000.0,50.0,2.5,1205000.0,40.2,2995000.0,,,,
277,2199833,Odengatan 81,1898.0,,,,Lägenhet,Vasastan,Slutpris,4.0,2016-10-22,59.3420405,18.0482898,/bostad/691936,SoldProperty,4500000,3.0,107143.0,42.0,1.0,505000.0,12.6,3995000.0,,,,
278,2057696,Hornsbergs Strand 15D,2015.0,,,,Lägenhet,Kungsholmen,Slutpris,1.0,2016-03-18,59.33998,18.014275,/annons/2057696,SoldProperty,7995000,7.0,99938.0,80.0,4.0,0.0,0.0,7995000.0,,,,
279,1963956,Karlbergsvägen 57,1903.0,,,,Lägenhet,Vasastan,Slutpris,13.0,2016-01-21,59.34233967,18.03327877,/bostad/115180,SoldProperty,3150000,5.0,108621.0,29.0,1.0,500000.0,18.9,2650000.0,,,,
280,2006207,Adolf Fredriks Kyrkogata 3,1939.0,,,,Lägenhet,Vasastan,Slutpris,15.0,2016-01-30,59.33775286,18.06262823,/bostad/2076091,SoldProperty,7000000,8.0,114754.0,61.0,2.0,505000.0,7.8,6495000.0,,,,
281,2051340,Torsgatan 27,1928.0,,,,Lägenhet,Vasastan,Slutpris,14.0,2016-03-18,59.3383832,18.0398949,/bostad/418843,SoldProperty,2700000,5.0,96429.0,28.0,1.0,205000.0,8.2,2495000.0,,,,
282,2018038,Johannes Plan 1,1885.0,,,,Lägenhet,Vasastan,Slutpris,12.0,2016-01-28,59.33764897,18.06448437,/annons/2018038,SoldProperty,7250000,4.0,97973.0,74.0,2.0,755000.0,11.6,6495000.0,,,,
283,2044125,Dalagatan 38A,1885.0,,,,Lägenhet,Vasastan,Slutpris,15.0,2016-03-19,59.34070738,18.04735062,/annons/2044125,SoldProperty,7300000,4.0,93590.0,78.0,3.0,805000.0,12.4,6495000.0,,,,
284,2067636,Atlasgatan 9,1929.0,,,,Lägenhet,Vasastan,Slutpris,11.0,2016-04-13,59.338245,18.038155,/annons/2067636,SoldProperty,6150000,1.0,93182.0,66.0,3.0,1155000.0,23.1,4995000.0,,,,
285,2067879,Vanadisvägen 28,1914.0,,,,Lägenhet,Vasastan,Slutpris,13.0,2016-04-15,59.34626637,18.04407656,/annons/2067879,SoldProperty,12050000,5.0,94141.0,128.0,4.0,1550000.0,14.8,10500000.0,,,,
286,2079186,Rådmansgatan 46,1956.0,,,,Lägenhet,Vasastan,Slutpris,10.0,2016-04-26,59.3411401,18.0610084,/annons/2079186,SoldProperty,2800000,2.0,112000.0,25.0,1.0,805000.0,40.4,1995000.0,,,,
287,2095761,Kungstensgatan 67,1889.0,,,,Lägenhet,Vasastan,Slutpris,17.0,2016-05-23,59.339108,18.049015,/annons/2095761,SoldProperty,5630000,0.0,81594.0,69.0,3.0,280000.0,5.2,5350000.0,,,,
288,2096190,Dalagatan 86C,1919.0,,,,Lägenhet,Vasastan,Slutpris,14.0,2016-05-27,59.34615053,18.04172612,/annons/2096190,SoldProperty,4350000,1.5,88776.0,49.0,2.0,355000.0,8.9,3995000.0,,,,
289,2121030,Roslagsgatan 48,1888.0,,,,Lägenhet,Vasastan,Slutpris,13.0,2016-06-16,59.349472,18.057169,/bostad/133629,SoldProperty,3700000,3.0,97368.0,38.0,2.0,305000.0,9.0,3395000.0,,,,
290,2159350,Torbjörn Klockares gata 6,1925.0,,,,Lägenhet,Vasastan,Slutpris,11.0,2016-09-27,59.344517,18.03382,/bostad/717067,SoldProperty,3400000,2.0,91892.0,37.0,1.0,450000.0,15.3,2950000.0,,,,
291,2136266,Frejgatan 50,1896.0,,,,Lägenhet,Vasastan,Slutpris,14.0,2016-07-20,59.3441,18.04394,/bostad/305000,SoldProperty,3850000,,91667.0,42.0,2.0,500000.0,14.9,3350000.0,,,,
292,2136493,Upplandsgatan 32,1967.0,,,,Lägenhet,Vasastan,Slutpris,12.0,2016-08-31,59.34041,18.051142,/bostad/779754,SoldProperty,6500000,3.0,76023.0,85.5,3.0,205000.0,3.3,6295000.0,,,,
293,2156878,Birkagatan 24,1905.0,,,,Lägenhet,Vasastan,Slutpris,12.0,2016-08-31,59.34076652,18.0354786,/annons/2156878,SoldProperty,3700000,,84091.0,44.0,1.0,405000.0,12.3,3295000.0,,,,
294,2019295,Ingemarsgatan 3B,1913.0,,,,Lägenhet,Vasastan,Slutpris,13.0,2016-09-29,59.34937,18.058014,/annons/2019295,SoldProperty,3250000,2.0,101563.0,32.0,2.0,400000.0,14.0,2850000.0,,,,
295,2177447,Völundsgatan 3,1929.0,,,,Lägenhet,Vasastan,Slutpris,13.0,2016-09-29,59.33797,18.03814,/annons/2177447,SoldProperty,3800000,1.0,90476.0,42.0,2.0,450000.0,13.4,3350000.0,,,,
296,2193016,Völundsgatan 10,1928.0,,,,Lägenhet,Atlas,Slutpris,13.0,2016-10-20,59.33863762,18.03904855,/bostad/794602,SoldProperty,2650000,1.0,110417.0,24.0,1.0,500000.0,23.3,2150000.0,,,,
297,2202663,Tomtebogatan 48A,1908.0,,,,Lägenhet,Birkastan,Slutpris,21.0,2016-11-11,59.342545,18.027218,/bostad/769926,SoldProperty,6050000,5.0,97581.0,62.0,3.0,800000.0,15.2,5250000.0,,,,
298,2211254,Ingemarsgatan 5,1968.0,,,,Lägenhet,Vasastan,Slutpris,14.0,2016-11-18,59.3492743,18.0576135,/bostad/133648,SoldProperty,3450000,5.0,86250.0,40.0,1.0,600000.0,21.1,2850000.0,,,,
299,2058572,Hornsbergs Strand 15D,2015.0,,,,Lägenhet,Kungsholmen,Slutpris,4.0,2016-03-22,59.33998,18.014275,/annons/2058572,SoldProperty,7995000,6.0,99938.0,80.0,4.0,0.0,0.0,7995000.0,,,,
300,2015742,Åsögatan 176,1930.0,,,,Lägenhet,Södermalm Sofia,Slutpris,14.0,2016-01-12,59.31452153,18.08717674,/bostad/139070,SoldProperty,3265000,5.0,96029.0,34.0,1.0,770000.0,30.9,2495000.0,,,,
301,2016725,Repslagargatan 6,1992.0,,,,Lägenhet,Södermalm Maria,Slutpris,22.0,2016-01-22,59.3181568,18.0699538,/annons/2016725,SoldProperty,8300000,6.0,75799.0,109.5,4.0,950000.0,12.9,7350000.0,,,,
302,2022211,Tjurbergsgatan 32,1926.0,,,,Lägenhet,Södermalm Katarina,Slutpris,12.0,2016-01-27,59.31072707,18.07216144,/bostad/768493,SoldProperty,7150000,4.0,102143.0,70.0,2.0,1500000.0,26.5,5650000.0,,,,
303,2025913,Ölandsgatan 46,1929.0,,,,Lägenhet,Södermalm Katarina,Slutpris,13.0,2016-02-03,59.30860714,18.07761557,/annons/2025913,SoldProperty,3700000,4.0,86047.0,43.0,2.0,705000.0,23.5,2995000.0,,,,
304,2043812,Borgmästargatan 10B,1884.0,,,,Lägenhet,Södermalm Sofia,Slutpris,12.0,2016-03-08,59.3142551,18.086362,/bostad/590960,SoldProperty,2910000,6.0,121250.0,24.0,1.0,915000.0,45.9,1995000.0,,,,
305,1827023,Nytorgsgatan 33,1929.0,,,,Lägenhet,Södermalm Katarina,Slutpris,5.0,2016-03-10,59.3129123,18.082746,/annons/1827023,SoldProperty,3000000,5.0,125000.0,24.0,1.0,550000.0,22.4,2450000.0,,,,
306,2054016,Ringvägen 79,1935.0,,,,Lägenhet,Södermalm Katarina,Slutpris,12.0,2016-03-22,59.30877819,18.06480347,/bostad/709766,SoldProperty,4300000,4.0,79630.0,54.0,2.0,805000.0,23.0,3495000.0,,,,
307,2051639,Folkskolegatan 20,1928.0,,,,Lägenhet,Södermalm Högalid,Slutpris,18.0,2016-03-23,59.31622415,18.0302918,/annons/2051639,SoldProperty,3150000,2.0,78750.0,40.0,1.5,455000.0,16.9,2695000.0,,,,
308,2051531,Bondegatan 46,1940.0,,,,Lägenhet,Södermalm Katarina,Slutpris,13.0,2016-03-17,59.3132709,18.0832089,/bostad/337657,SoldProperty,3100000,2.0,93939.0,33.0,1.5,450000.0,17.0,2650000.0,,,,
309,2061682,Fatburs Kvarngata 3,1990.0,,,,Lägenhet,Södermalm Maria,Slutpris,9.0,2016-04-01,59.3130032,18.0582463,/annons/2061682,SoldProperty,4420000,,66466.0,66.5,2.5,970000.0,28.1,3450000.0,,,,
310,2061703,Maria Prästgårdsgata 19A,1884.0,,,,Lägenhet,Södermalm Maria,Slutpris,13.0,2016-04-05,59.3158466,18.0621533,/bostad/670231,SoldProperty,8000000,2.0,102564.0,78.0,3.0,1505000.0,23.2,6495000.0,,,,
311,2076738,Katarina Bangata 67B,1967.0,,,,Lägenhet,Södermalm Sofia,Slutpris,11.0,2016-04-26,59.30918,18.08883,/bostad/632303,SoldProperty,6500000,0.0,74713.0,87.0,3.0,750000.0,13.0,5750000.0,,,,
312,2078051,Renstiernas gata 16,1898.0,,,,Lägenhet,Södermalm Katarina,Slutpris,33.0,2016-05-18,59.31572,18.08353,/bostad/149813,SoldProperty,3525000,1.0,90385.0,39.0,1.0,-225000.0,-6.0,3750000.0,,,,
313,2083366,Högalidsgatan 52B,1911.0,,,,Lägenhet,Södermalm Högalid,Slutpris,5.0,2016-05-22,59.318127,18.03327,/annons/2083366,SoldProperty,2750000,1.0,80882.0,34.0,1.0,400000.0,17.0,2350000.0,,,,
314,2100876,Fatburs Kvarngata 3,1990.0,,,,Lägenhet,Södermalm Maria,Slutpris,26.0,2016-06-08,59.3130032,18.0582463,/bostad/570576,SoldProperty,4000000,2.0,62992.0,63.5,2.0,505000.0,14.4,3495000.0,,,,
315,2118920,Tjustgatan 3,1936.0,,,,Lägenhet,Södermalm Katarina,Slutpris,9.0,2016-06-11,59.312172,18.070684,/bostad/768522,SoldProperty,3850000,6.0,89535.0,43.0,2.0,700000.0,22.2,3150000.0,,,,
316,2164318,Blekingegatan 40,1904.0,,,,Lägenhet,Södermalm Katarina,Slutpris,24.0,2016-09-24,59.3106148,18.0765194,/annons/2164318,SoldProperty,11500000,,73248.0,157.0,4.0,0.0,0.0,11500000.0,,,,
317,2124771,Långholmsgatan 13,1913.0,,,,Lägenhet,Södermalm Högalid,Slutpris,13.0,2016-06-23,59.31699337,18.0333817,/bostad/665864,SoldProperty,3700000,4.0,82222.0,45.0,2.0,350000.0,10.4,3350000.0,,,,
318,2185576,Brännkyrkagatan 119,1945.0,,,,Lägenhet,Södermalm,Slutpris,4.0,2016-09-28,59.31720688,18.04450442,/annons/2185576,SoldProperty,3250000,1.0,98485.0,33.0,2.0,900000.0,38.3,2350000.0,,,,
319,2119754,Assessorsgatan 6,1929.0,,,,Lägenhet,Södermalm Katarina,Slutpris,20.0,2016-06-23,59.310066,18.068554,/bostad/589136,SoldProperty,3220000,2.0,76667.0,42.0,1.5,225000.0,7.5,2995000.0,,,,
320,2185146,Vintertullstorget 8,1983.0,,,,Lägenhet,Södermalm,Slutpris,16.0,2016-10-03,59.30701,18.09041,/bostad/789492,SoldProperty,4905000,3.0,71087.0,69.0,2.0,555000.0,12.8,4350000.0,,,,
321,1971620,Fredmansgatan 6B,1898.0,,,,Lägenhet,Södermalm Maria,Slutpris,11.0,2016-09-14,59.316895,18.066664,/annons/1971620,SoldProperty,5600000,2.0,93333.0,60.0,2.0,1305000.0,30.4,4295000.0,,,,
322,2192918,Borgargatan 18,1965.0,,,,Lägenhet,Södermalm,Slutpris,7.0,2016-10-14,59.3165678,18.0348042,/annons/2192918,SoldProperty,3100000,5.0,121569.0,25.5,1.0,1105000.0,55.4,1995000.0,,,,
323,2194196,Wollmar Yxkullsgatan 3,1906.0,,,,Lägenhet,Södermalm,Slutpris,11.0,2016-10-19,59.31688935,18.06473136,/annons/2194196,SoldProperty,4560000,3.0,99130.0,46.0,2.0,910000.0,24.9,3650000.0,,,,
324,2181539,Repslagargatan 18,1992.0,,,,Lägenhet,Södermalm,Slutpris,20.0,2016-11-01,59.31696599,18.070364,/annons/2181539,SoldProperty,7650000,,72512.0,105.5,4.0,655000.0,9.4,6995000.0,,,,
325,2210621,Bergsunds Strand 36,1971.0,,,,Lägenhet,Södermalm,Slutpris,13.0,2016-11-17,59.31527,18.031902,/annons/2210621,SoldProperty,5150000,1.0,75735.0,68.0,2.0,500000.0,10.8,4650000.0,,,,
326,2016583,Bergsunds Strand 9,1940.0,,,,Lägenhet,Södermalm,Slutpris,14.0,2016-01-13,59.31725254,18.02660814,/annons/2016583,SoldProperty,2975000,4.0,112264.0,26.5,1.0,980000.0,49.1,1995000.0,,,,
327,2024580,Torsgatan 59,1929.0,,,,Lägenhet,Vasastan,Slutpris,11.0,2016-01-30,59.343198,18.0357738,/bostad/771883,SoldProperty,5100000,2.0,92727.0,55.0,2.0,750000.0,17.2,4350000.0,,,,
328,2039450,Mariebergsgatan 15,2006.0,,,,Lägenhet,Kungsholmen,Slutpris,13.0,2016-03-01,59.3338646,18.0245302,/bostad/670819,SoldProperty,4810000,6.0,90755.0,53.0,2.0,910000.0,23.3,3900000.0,,,,
329,2061976,Rörstrandsgatan 34,1909.0,,,,Lägenhet,Vasastan,Slutpris,15.0,2016-04-07,59.34097683,18.02928319,/bostad/717889,SoldProperty,3220000,,94706.0,34.0,1.0,370000.0,13.0,2850000.0,,,,
330,2031629,Rehnsgatan 10,1887.0,,,,Lägenhet,Vasastan,Slutpris,21.0,2016-02-24,59.3431444,18.060505,/annons/2031629,SoldProperty,3400000,,87179.0,39.0,2.0,500000.0,17.2,2900000.0,,,,
331,2043343,Strålgatan 35,1938.0,,,,Lägenhet,Lilla Essingen,Slutpris,14.0,2016-03-09,59.32418649,18.0046102,/bostad/804830,SoldProperty,2910000,4.0,88182.0,33.0,2.0,510000.0,21.2,2400000.0,,,,
332,2096537,Norrbackagatan 60,1930.0,,,,Lägenhet,Vasastan,Slutpris,11.0,2016-05-19,59.34353,18.032001,/annons/2096537,SoldProperty,4055000,3.0,84479.0,48.0,2.0,405000.0,11.1,3650000.0,,,,
333,2100119,Katarina Bangata 45,1907.0,,,,Lägenhet,Södermalm,Slutpris,16.0,2016-05-28,59.3104232,18.0846785,/annons/2100119,SoldProperty,6175000,3.0,89493.0,69.0,3.0,1295000.0,26.5,4880000.0,,,,
334,2107737,Hornsgatan 64A,1910.0,,,,Lägenhet,Södermalm,Slutpris,14.0,2016-06-02,59.31875073,18.06046765,/bostad/438552,SoldProperty,9600000,1.5,75591.0,127.0,4.0,350000.0,3.8,9250000.0,,,,
335,2135721,Hälsingegatan 11,1898.0,,,,Lägenhet,Vasastan,Slutpris,14.0,2016-07-19,59.34211,18.042906,/annons/2135721,SoldProperty,5900000,1.0,95161.0,62.0,2.0,405000.0,7.4,5495000.0,,,,
336,2096316,Lindhagensgatan 104B,2013.0,,,,Lägenhet,Kungsholmen,Slutpris,14.0,2016-05-21,59.3357977,18.013157,/annons/2096316,SoldProperty,8800000,8.0,84615.0,104.0,4.0,1300000.0,17.3,7500000.0,,,,
337,2099967,Rörstrandsgatan 35,1929.0,,,,Lägenhet,Vasastan,Slutpris,14.0,2016-05-26,59.34055,18.02868,/annons/2099967,SoldProperty,2805000,1.5,100179.0,28.0,1.0,510000.0,22.2,2295000.0,,,,
338,2062149,Bjurholmsgatan 37,1927.0,,,,Lägenhet,Området,Slutpris,35.0,2016-06-30,59.3090709,18.0810354,/bostad/145598,SoldProperty,3200000,4.0,80000.0,40.0,1.5,350000.0,12.3,2850000.0,,,,
339,2156202,Bergsunds Strand 15,1939.0,,,,Lägenhet,Södermalm,Slutpris,13.0,2016-09-01,59.31654443,18.02692294,/annons/2156202,SoldProperty,3675000,4.0,87500.0,42.0,2.0,735000.0,25.0,2940000.0,,,,
340,2158409,Linnégatan 31,1938.0,,,,Lägenhet,Östermalm,Slutpris,16.0,2016-09-08,59.337048,18.08161,/bostad/138148,SoldProperty,13600000,5.0,130769.0,104.0,2.0,3800000.0,38.8,9800000.0,,,,
341,2101472,Götgatan 101,1926.0,,,,Lägenhet,Södermalm,Slutpris,14.0,2016-09-14,59.307297,18.077087,/bostad/312119,SoldProperty,3160000,2.5,83158.0,38.0,1.0,465000.0,17.3,2695000.0,,,,
342,2176852,Industrigatan 7A,1941.0,,,,Lägenhet,Kungsholmen,Slutpris,21.0,2016-10-07,59.33648,18.030367,/bostad/131890,SoldProperty,4670000,6.0,81930.0,57.0,2.0,320000.0,7.4,4350000.0,,,,
343,2196053,Katarina Bangata 55,1929.0,,,,Lägenhet,Södermalm,Slutpris,9.0,2016-10-21,59.30959,18.08681,/bostad/632064,SoldProperty,3200000,2.0,100000.0,32.0,1.0,750000.0,30.6,2450000.0,,,,
344,2195729,Tavastgatan 28,1937.0,,,,Lägenhet,Södermalm,Slutpris,16.0,2016-10-28,59.319622,18.05964,/annons/2195729,SoldProperty,5370000,2.0,85238.0,63.0,2.0,670000.0,14.3,4700000.0,,,,
345,2223379,Sankt Paulsgatan 28B,1881.0,,,,Lägenhet,Södermalm,Slutpris,14.0,2016-12-09,59.31728,18.060326,/annons/2223379,SoldProperty,3270000,,116786.0,28.0,1.0,0.0,0.0,3270000.0,,,,
346,2202343,Skeppargatan 102,1932.0,,,,Lägenhet,Östermalm,Slutpris,12.0,2016-11-02,59.34320562,18.0911575,/bostad/732514,SoldProperty,4575000,2.0,102809.0,44.5,2.0,980000.0,27.3,3595000.0,,,,
347,1863552,Surbrunnsgatan 3,,,,,Lägenhet,Vasastan,Slutpris,16.0,2016-05-20,59.34710378,18.06470257,/bostad/754776,SoldProperty,4100000,0.5,75926.0,54.0,2.0,325000.0,8.6,3775000.0,,,,
348,2033885,Birger Jarlsgatan 119,1906.0,,,,Lägenhet,Vasastan,Slutpris,27.0,2016-03-04,59.350014,18.058126,/bostad/416878,SoldProperty,4560000,2.5,80000.0,57.0,2.0,10000.0,0.2,4550000.0,,,,
349,2030522,Sibyllegatan 40,1899.0,,,,Lägenhet,Östermalm,Slutpris,116.0,2016-05-26,59.34011827,18.08349384,/bostad/723921,SoldProperty,6400000,3.0,112281.0,57.0,2.0,405000.0,6.8,5995000.0,,,,
350,2100105,Drottninghusgränd 2,1884.0,,,,Lägenhet,Norrmalm,Slutpris,19.0,2016-05-31,59.34076756,18.06418441,/bostad/343000,SoldProperty,7800000,3.0,95122.0,82.0,3.0,805000.0,11.5,6995000.0,,,,
351,2022424,Furusundsgatan 16,1937.0,,,,Lägenhet,Östermalm,Slutpris,20.0,2016-02-04,59.34639,18.099083,/bostad/347652,SoldProperty,3500000,6.0,94595.0,37.0,1.5,505000.0,16.9,2995000.0,,,,
352,2157503,Artillerigatan 53,1886.0,,,,Lägenhet,Östermalm,Slutpris,11.0,2016-08-31,59.33827443,18.08394227,/bostad/338035,SoldProperty,4000000,0.5,97561.0,41.0,2.0,705000.0,21.4,3295000.0,,,,
353,2086768,Södermannagatan 31,1926.0,,,,Lägenhet,Södermalm,Slutpris,14.0,2016-05-11,59.31163,18.081568,/bostad/689970,SoldProperty,5925000,3.0,87132.0,68.0,2.5,775000.0,15.0,5150000.0,,,,
354,2122548,Banérgatan 31,,,,,Lägenhet,Östermalm,Slutpris,8.0,2016-06-16,59.33634968,18.09386418,/bostad/335311,SoldProperty,11300000,2.0,129885.0,87.0,3.0,1305000.0,13.1,9995000.0,,,,
355,2165870,Gumshornsgatan 7,1931.0,,,,Lägenhet,Östermalm,Slutpris,12.0,2016-09-14,59.33625384,18.08919419,/bostad/325587,SoldProperty,3425000,2.0,116102.0,29.5,1.0,530000.0,18.3,2895000.0,,,,
356,2114550,Torsgatan 38,1927.0,,,,Lägenhet,Vasastan,Slutpris,13.0,2016-08-31,59.34056,18.038591,/bostad/771685,SoldProperty,7270000,2.0,95658.0,76.0,3.5,1320000.0,22.2,5950000.0,,,,
357,2192803,Skeppargatan 92,1932.0,,,,Lägenhet,Nedre Gärdet,Slutpris,17.0,2016-10-24,59.34196371,18.08977313,/annons/2192803,SoldProperty,5895000,3.0,84214.0,70.0,2.0,0.0,0.0,5895000.0,,,,
358,2155829,Banérgatan 77,1951.0,,,,Lägenhet,Gärdet,Slutpris,18.0,2016-09-05,59.3405977,18.0967059,/bostad/582370,SoldProperty,10600000,1.0,106000.0,100.0,4.0,1705000.0,19.2,8895000.0,,,,
359,2197026,Jungfrugatan 43A,1893.0,,,,Lägenhet,Östermalm,Slutpris,16.0,2016-10-29,59.3410801,18.0851446,/annons/2197026,SoldProperty,5950000,2.0,97541.0,61.0,2.0,455000.0,8.3,5495000.0,,,,
360,2166662,Drottninghusgränd 7,1937.0,,,,Lägenhet,Norrmalm,Slutpris,32.0,2016-10-04,59.338173,18.06614,/annons/2166662,SoldProperty,3700000,1.0,92500.0,40.0,2.0,100000.0,2.8,3600000.0,,,,
361,2187863,Bengt Ekehjelmsgatan 9,1906.0,,,,Lägenhet,Södermalm,Slutpris,26.0,2016-10-26,59.314796,18.062878,/bostad/575641,SoldProperty,7200000,2.0,101408.0,71.0,3.0,1205000.0,20.1,5995000.0,,,,
362,2192035,Narvavägen 14,1892.0,,,,Lägenhet,Ög,Slutpris,20.0,2016-10-26,59.3351097,18.0920408,/bostad/681650,SoldProperty,4475000,,117763.0,38.0,2.0,780000.0,21.1,3695000.0,,,,
363,2175271,Bergsunds Strand 38,1971.0,,,,Lägenhet,Södermalm-Högalid,Slutpris,19.0,2016-10-04,59.31560274,18.03203,/annons/2175271,SoldProperty,3750000,0.0,78125.0,48.0,2.0,500000.0,15.4,3250000.0,,,,
364,2223735,Tjärhovsgatan 22,1940.0,,,,Lägenhet,Södermalm,Slutpris,20.0,2016-12-16,59.31527,18.077659,/annons/2223735,SoldProperty,2220000,5.0,116842.0,19.0,1.0,425000.0,23.7,1795000.0,,,,
365,2221292,Primusgatan 87,2006.0,,,,Lägenhet,Lilla Essingen,Slutpris,15.0,2016-12-08,59.32310836,18.00423697,/annons/2221292,SoldProperty,8000000,6.0,81633.0,98.0,4.0,510000.0,6.8,7490000.0,,,,
366,2215340,Grev Turegatan 53,1880.0,,,,Lägenhet,Östermalm,Slutpris,12.0,2016-11-23,59.34023379,18.07937027,/bostad/424254,SoldProperty,9400000,2.0,111905.0,84.0,3.0,1650000.0,21.3,7750000.0,,,,
367,2215334,Regeringsgatan 83,1891.0,,,,Lägenhet,Norrmalm,Slutpris,6.0,2016-11-17,59.33710785,18.06712592,/bostad/704951,SoldProperty,9000000,1.0,92784.0,97.0,4.0,1050000.0,13.2,7950000.0,,,,
368,2183583,Sibyllegatan 51,1939.0,,,,Lägenhet,Östermalm,Slutpris,16.0,2016-10-09,59.33844,18.081697,/bostad/724004,SoldProperty,6450000,3.0,96269.0,67.0,2.0,500000.0,8.4,5950000.0,,,,
369,2169923,Grevgatan 8,1896.0,,,,Lägenhet,Östermalm,Slutpris,13.0,2016-09-21,59.33249981,18.08378785,/annons/2169923,SoldProperty,14500000,2.0,127193.0,114.0,4.0,3550000.0,32.4,10950000.0,,,,
370,2103576,Lundagatan 36F,1931.0,,,,Lägenhet,Södermalm,Slutpris,19.0,2016-06-03,59.3189529,18.045157,/annons/2103576,SoldProperty,5475000,2.0,97768.0,56.0,2.5,780000.0,16.6,4695000.0,,,,
371,2103523,Sandhamnsgatan 23,1962.0,,,,Lägenhet,Gärdet,Slutpris,14.0,2016-05-28,59.34493056,18.11007322,/annons/2103523,SoldProperty,2650000,1.0,110417.0,24.0,1.0,260000.0,10.9,2390000.0,,,,
372,2023531,John Bergs Plan 7,1937.0,,,,Lägenhet,Kungsholmen,Slutpris,16.0,2016-02-01,59.336926,18.022543,/annons/2023531,SoldProperty,3375000,5.0,88816.0,38.0,2.0,880000.0,35.3,2495000.0,,,,
373,2029866,Skeppargatan 72,1903.0,,,,Lägenhet,Östermalm,Slutpris,21.0,2016-02-19,59.33931756,18.08732647,/bostad/733036,SoldProperty,5100000,5.0,94444.0,54.0,2.5,0.0,0.0,5100000.0,,,,
374,2053878,Essinge Brogata 15,1939.0,,,,Lägenhet,Kungsholmen,Slutpris,19.0,2016-03-29,59.3248269,18.00585156,/bostad/567313,SoldProperty,3600000,3.0,64286.0,56.0,2.0,350000.0,10.8,3250000.0,,,,
375,2064100,Tomtebogatan 48B,1906.0,,,,Lägenhet,Vasastan,Slutpris,7.0,2016-04-01,59.34258251,18.02708649,/bostad/769937,SoldProperty,4200000,5.0,105000.0,40.0,1.0,810000.0,23.9,3390000.0,,,,
376,2053587,Rödabergsgatan 12,1925.0,,,,Lägenhet,Vasastan,Slutpris,23.0,2016-04-01,59.34429068,18.03429365,/bostad/717021,SoldProperty,4200000,,82353.0,51.0,2.0,310000.0,8.0,3890000.0,,,,
377,2026690,Roslagsgatan 47,1929.0,,,,Lägenhet,Vasastan,Slutpris,56.0,2016-03-18,59.349728,18.05653,/annons/2026690,SoldProperty,3600000,5.0,77419.0,46.5,1.5,350000.0,10.8,3250000.0,,,,
378,2058209,Bråvallagatan 8,1929.0,,,,Lägenhet,Vasastan,Slutpris,15.0,2016-04-01,59.338726,18.034895,/annons/2058209,SoldProperty,3050000,4.0,112963.0,27.0,1.5,600000.0,24.5,2450000.0,,,,
379,2059000,Birger Jarlsgatan 107,1884.0,,,,Lägenhet,Vasastan,Slutpris,19.0,2016-04-06,59.3485288,18.0595585,/annons/2059000,SoldProperty,6350000,2.0,84667.0,75.0,3.0,500000.0,8.5,5850000.0,,,,
380,2103058,Tomtebogatan 31,1910.0,,,,Lägenhet,Vasastan,Slutpris,13.0,2016-05-27,59.34151323,18.03003269,/bostad/769700,SoldProperty,5325000,1.0,93421.0,57.0,2.0,635000.0,13.5,4690000.0,,,,
381,2071523,Torsgatan 25,1928.0,,,,Lägenhet,Vasastan,Slutpris,11.0,2016-04-19,59.33812498,18.04038758,/annons/2071523,SoldProperty,3650000,5.0,98649.0,37.0,2.0,500000.0,15.9,3150000.0,,,,
382,2078163,Drejargatan 5,1926.0,,,,Lägenhet,Vasastan,Slutpris,11.0,2016-04-26,59.33992997,18.03140638,/annons/2078163,SoldProperty,2260000,5.0,132941.0,17.0,1.0,570000.0,33.7,1690000.0,,,,
383,2119418,Tomtebogatan 28,1906.0,,,,Lägenhet,Vasastan,Slutpris,20.0,2016-06-23,59.3416298,18.0303828,/annons/2119418,SoldProperty,13040000,,95182.0,137.0,4.0,-460000.0,-3.4,13500000.0,,,,
384,2144180,Strindbergsgatan 37,1937.0,,,,Lägenhet,Gärdet,Slutpris,13.0,2016-08-10,59.3421972,18.09094825,/bostad/564733,SoldProperty,4000000,1.5,90909.0,44.0,2.0,250000.0,6.7,3750000.0,,,,
385,2096153,Drejargatan 1,1926.0,,,,Lägenhet,Vasastan,Slutpris,20.0,2016-05-27,59.3396705,18.0314093,/annons/2096153,SoldProperty,3200000,5.0,94118.0,34.0,1.0,410000.0,14.7,2790000.0,,,,
386,2151752,Gästrikegatan 22,1899.0,,,,Lägenhet,Vasastan,Slutpris,12.0,2016-08-24,59.3421574,18.03916973,/annons/2151752,SoldProperty,6200000,4.0,98413.0,63.0,2.0,1010000.0,19.5,5190000.0,,,,
387,2108384,Torsgatan 42,1926.0,,,,Lägenhet,Vasastan,Slutpris,11.0,2016-05-31,59.340893,18.038294,/annons/2108384,SoldProperty,6350000,2.0,85811.0,74.0,2.0,855000.0,15.6,5495000.0,,,,
388,2093798,Drejargatan 8,1928.0,,,,Lägenhet,Vasastan,Slutpris,14.0,2016-08-11,59.3401207,18.0320428,/bostad/340988,SoldProperty,5400000,1.0,85714.0,63.0,2.5,500000.0,10.2,4900000.0,,,,
389,2188759,Dalagatan 40,1886.0,,,,Lägenhet,Vasastan,Slutpris,13.0,2016-10-13,59.34074809,18.04683674,/annons/2188759,SoldProperty,3860000,3.0,116970.0,33.0,1.0,865000.0,28.9,2995000.0,,,,
390,2193780,Hantverkargatan 46,1884.0,,,,Lägenhet,Kungsholmen,Slutpris,13.0,2016-10-20,59.329758,18.038185,/annons/2193780,SoldProperty,3300000,2.0,89189.0,37.0,1.5,510000.0,18.3,2790000.0,,,,
391,2164807,Ola Hanssonsgatan 7,1934.0,,,,Lägenhet,Kungsholmen,Slutpris,12.0,2016-09-13,59.33404,18.0004,/bostad/692607,SoldProperty,2800000,0.5,100000.0,28.0,1.0,650000.0,30.2,2150000.0,,,,
392,2215285,Gästrikegatan 9,1909.0,,,,Lägenhet,Vasastan,Slutpris,4.0,2016-11-15,59.34112,18.03972,/annons/2215285,SoldProperty,15500000,5.0,102649.0,151.0,5.0,2600000.0,20.2,12900000.0,,,,
393,2201995,Västmannagatan 46,1969.0,,,,Lägenhet,Vasastan,Slutpris,12.0,2016-11-02,59.34087,18.048672,/annons/2201995,SoldProperty,3270000,3.0,109000.0,30.0,1.0,680000.0,26.3,2590000.0,,,,
394,2210168,Dalagatan 8,1929.0,,,,Lägenhet,Norrmalm,Slutpris,13.0,2016-11-16,59.336697,18.050768,/bostad/586065,SoldProperty,3900000,1.0,92857.0,42.0,1.5,650000.0,20.0,3250000.0,,,,
395,2211402,Sankt Eriksgatan 71B,1930.0,,,,Lägenhet,Vasastan,Slutpris,12.0,2016-11-16,59.33862,18.035583,/bostad/721027,SoldProperty,5720000,1.0,86667.0,66.0,3.0,470000.0,9.0,5250000.0,,,,
396,2206297,Roslagsgatan 47,1929.0,,,,Lägenhet,Vasastan,Slutpris,24.0,2016-11-21,59.349728,18.05653,/annons/2206297,SoldProperty,2980000,5.0,81644.0,36.5,1.5,-370000.0,-11.0,3350000.0,,,,
397,2002145,Hårdvallsgatan 13,2015.0,,,,Lägenhet,Norra Djurgårdsstaden,Slutpris,83.0,2016-02-10,59.3541,18.0893,/annons/2002145,SoldProperty,5800000,2.0,70732.0,82.0,3.0,100000.0,1.8,5700000.0,,,,
398,2026709,Furusundsgatan 8,1940.0,,,,Lägenhet,Gärdet,Slutpris,19.0,2016-02-10,59.34757,18.09643,/annons/2026709,SoldProperty,2930000,5.0,94516.0,31.0,1.0,535000.0,22.3,2395000.0,,,,
399,2008564,Slåttervallsgatan 5,2015.0,,,,Lägenhet,Östermalm,Slutpris,25.0,2016-02-16,59.3543,18.08872,/annons/2008564,SoldProperty,7900000,3.0,75962.0,104.0,4.0,105000.0,1.3,7795000.0,,,,
400,1960136,Lövängsgatan 12,2015.0,,,,Lägenhet,Norra Djurgårdsstaden,Slutpris,10.0,2016-01-25,59.3538823,18.08862177,/bostad/3749932,SoldProperty,4400000,4.0,80000.0,55.0,2.0,105000.0,2.4,4295000.0,,,,
401,2036351,Rindögatan 9,1942.0,,,,Lägenhet,Gärdet,Slutpris,25.0,2016-03-07,59.34755894,18.09486707,/annons/2036351,SoldProperty,4000000,7.0,74074.0,54.0,2.0,250000.0,6.7,3750000.0,,,,
402,2018921,Rindögatan 25,1938.0,,,,Lägenhet,Gärdet,Slutpris,17.0,2016-01-25,59.345783,18.099148,/bostad/707370,SoldProperty,6000000,3.0,81522.0,73.6,3.0,505000.0,9.2,5495000.0,,,,
403,2067794,Rindögatan 28,1938.0,,,,Lägenhet,Gärdet,Slutpris,12.0,2016-04-14,59.3456925,18.09777616,/annons/2067794,SoldProperty,3000000,1.0,76923.0,39.0,2.0,350000.0,13.2,2650000.0,,,,
404,2060226,Storängsgatan 11,2014.0,,,,Lägenhet,Norra Djurgårdsstaden,Slutpris,18.0,2016-04-19,59.353966,18.087519,/annons/2060226,SoldProperty,5175000,3.0,71875.0,72.0,3.0,0.0,0.0,5175000.0,,,,
405,2041580,Jaktgatan 9,2013.0,,,,Lägenhet,Norra Djurgårdsstaden,Slutpris,19.0,2016-03-10,59.35631577,18.08674158,/bostad/134290,SoldProperty,8500000,,84158.0,101.0,4.0,0.0,0.0,8500000.0,,,,
406,2034041,Slåttervallsgatan 3,2015.0,,,,Lägenhet,Norra Djurgårdsstaden,Slutpris,13.0,2016-04-06,59.35429,18.088959,/annons/2034041,SoldProperty,5850000,5.0,72222.0,81.0,3.0,-145000.0,-2.4,5995000.0,,,,
407,2089228,Rindögatan 25,1938.0,,,,Lägenhet,Gärdet,Slutpris,10.0,2016-05-09,59.345783,18.099148,/bostad/707365,SoldProperty,2750000,2.0,121145.0,22.7,1.0,755000.0,37.8,1995000.0,,,,
408,2078835,Taxgatan 10,2015.0,,,,Lägenhet,Norra Djurgårdsstaden,Slutpris,22.0,2016-05-14,59.35833,18.087425,/annons/2078835,SoldProperty,4950000,2.0,79839.0,62.0,2.0,-45000.0,-0.9,4995000.0,,,,
409,2079115,Furusundsgatan 2,1939.0,,,,Lägenhet,Gärdet,Slutpris,33.0,2016-05-19,59.34798005,18.09541698,/annons/2079115,SoldProperty,3500000,1.0,72165.0,48.5,2.0,50000.0,1.4,3450000.0,,,,
410,2072436,Rindögatan 27,1939.0,,,,Lägenhet,Gärdet,Slutpris,18.0,2016-04-26,59.34558786,18.100214,/bostad/707436,SoldProperty,3420000,3.0,90237.0,37.9,2.0,425000.0,14.2,2995000.0,,,,
411,2103170,Högviltsgatan 7,2012.0,,,,Lägenhet,Norra Djurgårdsstaden,Slutpris,9.0,2016-05-23,59.356808,18.085894,/bostad/254689,SoldProperty,6900000,3.0,79310.0,87.0,3.0,405000.0,6.2,6495000.0,,,,
412,2123162,Dianavägen 33,1924.0,,,,Lägenhet,Hjorthagen,Slutpris,11.0,2016-06-20,59.35682895,18.09872329,/annons/2123162,SoldProperty,3785000,5.0,72788.0,52.0,2.0,-10000.0,-0.3,3795000.0,,,,
413,2134282,Rindögatan 27,1939.0,,,,Lägenhet,Gärdet,Slutpris,14.0,2016-07-14,59.34558786,18.100214,/bostad/707438,SoldProperty,2600000,4.0,111111.0,23.4,1.0,505000.0,24.1,2095000.0,,,,
414,2119216,Furusundsgatan 8,1940.0,,,,Lägenhet,Gärdet,Slutpris,18.0,2016-06-20,59.34757,18.09643,/bostad/347422,SoldProperty,3795000,5.0,88256.0,43.0,2.0,0.0,0.0,3795000.0,,,,
415,2125512,Storskärsgatan 3,1938.0,,,,Lägenhet,Nedre Gärdet,Slutpris,16.0,2016-06-27,59.342278,18.096,/annons/2125512,SoldProperty,3850000,3.0,93902.0,41.0,2.0,355000.0,10.2,3495000.0,,,,
416,2142394,Rindögatan 30,1938.0,,,,Lägenhet,Gärdet,Slutpris,17.0,2016-08-08,59.345654,18.098082,/annons/2142394,SoldProperty,3050000,1.0,101667.0,30.0,1.0,455000.0,17.5,2595000.0,,,,
417,2127184,Hårdvallsgatan 11,2015.0,,,,Lägenhet,Norra Djurgården,Slutpris,58.0,2016-08-27,59.35393,18.089441,/annons/2127184,SoldProperty,6395000,2.0,65928.0,97.0,4.0,0.0,0.0,6395000.0,,,,
418,2135088,Taxgatan 2,2015.0,,,,Lägenhet,Norra Djurgården,Slutpris,68.0,2016-09-08,59.35797501,18.08789253,/annons/2135088,SoldProperty,5250000,4.0,79545.0,66.0,2.0,-195000.0,-3.6,5445000.0,,,,
419,2187404,Rindögatan 25,1938.0,,,,Lägenhet,Gärdet,Slutpris,14.0,2016-10-13,59.345783,18.099148,/bostad/707407,SoldProperty,2770000,8.0,120435.0,23.0,1.0,620000.0,28.8,2150000.0,,,,
420,2187315,Värtavägen 59,1943.0,,,,Lägenhet,Gärdet,Slutpris,14.0,2016-10-13,59.347713,18.101923,/bostad/792754,SoldProperty,2350000,2.0,117500.0,20.0,1.0,400000.0,20.5,1950000.0,,,,
421,2131711,Hårdvallsgatan 11,2015.0,,,,Lägenhet,Norra Djurgården,Slutpris,14.0,2016-09-08,59.35393,18.089441,/annons/2131711,SoldProperty,3895000,7.0,79490.0,49.0,2.0,0.0,0.0,3895000.0,,,,
422,2175938,Jaktgatan 11,2013.0,,,,Lägenhet,Norra Djurgården,Slutpris,14.0,2016-10-14,59.356506,18.086689,/bostad/134314,SoldProperty,8700000,6.0,83654.0,104.0,4.0,750000.0,9.4,7950000.0,,,,
423,2177203,Artemisgatan 73,1939.0,,,,Lägenhet,Hjorthagen,Slutpris,12.0,2016-09-28,59.3566743,18.0958855,/annons/2177203,SoldProperty,3100000,0.5,81579.0,38.0,2.0,605000.0,24.2,2495000.0,,,,
424,2211638,Rindögatan 25,1938.0,,,,Lägenhet,Gärdet,Slutpris,12.0,2016-11-16,59.345783,18.099148,/bostad/707372,SoldProperty,3725000,2.0,99069.0,37.6,2.0,730000.0,24.4,2995000.0,,,,
425,2198432,Taxgatan 10,2015.0,,,,Lägenhet,Norra Djurgården,Slutpris,6.0,2016-10-20,59.35833,18.087425,/annons/2198432,SoldProperty,4750000,2.0,76613.0,62.0,2.0,155000.0,3.4,4595000.0,,,,
426,2215621,Högviltsgatan 7,2012.0,,,,Lägenhet,Norra Djurgården,Slutpris,20.0,2016-12-01,59.356808,18.085894,/bostad/254681,SoldProperty,3700000,6.0,92500.0,40.0,2.0,5000.0,0.1,3695000.0,,,,
427,2215514,Fågelhundsgatan 18,2012.0,,,,Lägenhet,Norra Djurgården,Slutpris,27.0,2016-12-08,59.35722,18.085258,/bostad/3778676,SoldProperty,4225000,3.0,68145.0,62.0,2.0,0.0,0.0,4225000.0,,,,
428,2211057,Hårdvallsgatan 11,2015.0,,,,Lägenhet,Norra Djurgården,Slutpris,26.0,2016-11-30,59.35393,18.089441,/annons/2211057,SoldProperty,6150000,,63402.0,97.0,4.0,155000.0,2.6,5995000.0,,,,
429,2211056,Hårdvallsgatan 11,2015.0,,,,Lägenhet,Norra Djurgården,Slutpris,31.0,2016-12-05,59.35393,18.089441,/annons/2211056,SoldProperty,3750000,3.0,76531.0,49.0,2.0,55000.0,1.5,3695000.0,,,,
430,2225722,Rindögatan 25,1938.0,,,,Lägenhet,Gärdet,Slutpris,5.0,2016-12-06,59.345783,18.099148,/annons/2225722,SoldProperty,4250000,6.0,114247.0,37.2,2.0,,,,,,,
431,2183568,Hantverkargatan 30A,1885.0,,,,Lägenhet,Kungsholmen,Slutpris,7.0,2016-09-30,59.329445,18.042292,/bostad/320540,SoldProperty,3320000,3.0,132800.0,25.0,1.0,825000.0,33.1,2495000.0,,,,
432,2185886,Strindbergsgatan 44,1933.0,,,,Lägenhet,Gärdet,Slutpris,8.0,2016-10-21,59.342106,18.090467,/annons/2185886,SoldProperty,4300000,2.5,110256.0,39.0,2.0,805000.0,23.0,3495000.0,,,,
433,2219299,Erik Dahlbergsgatan 27,1937.0,,,,Lägenhet,Gärdet,Slutpris,18.0,2016-12-06,59.342457,18.091318,/annons/2219299,SoldProperty,3310000,2.0,100303.0,33.0,1.0,515000.0,18.4,2795000.0,,,,
434,2218486,Smedsbacksgatan 1,,,,,Lägenhet,Gärdet,Slutpris,13.0,2016-11-30,59.346587,18.1000911,/annons/2218486,SoldProperty,5500000,2.0,84615.0,65.0,3.0,505000.0,10.1,4995000.0,,,,
435,2222219,Erik Dahlbergsgatan 35,1935.0,,,,Lägenhet,Gärdet,Slutpris,13.0,2016-12-08,59.343304,18.091915,/bostad/564609,SoldProperty,2850000,3.0,114000.0,25.0,1.0,500000.0,21.3,2350000.0,,,,
436,2182432,Rålambsvägen 12A,1989.0,,,,Lägenhet,Kungsholmen,Slutpris,17.0,2016-10-09,59.3286995,18.0173476,/bostad/704421,SoldProperty,4200000,6.0,67742.0,62.0,2.0,250000.0,6.3,3950000.0,,,,
437,2219721,Eriksdalsgatan 20,1930.0,,,,Lägenhet,Södermalm,Slutpris,17.0,2016-12-05,59.30654709,18.06555114,/annons/2219721,SoldProperty,4250000,1.0,92391.0,46.0,3.0,0.0,0.0,4250000.0,,,,
438,2019417,Alströmergatan 32L,1929.0,,,,Lägenhet,Kungsholmen Fridhemsplan,Slutpris,14.0,2016-01-22,59.3372435,18.0266309,/annons/2019417,SoldProperty,3800000,2.0,84444.0,45.0,2.0,305000.0,8.7,3495000.0,,,,
439,2014490,Alströmergatan 32Q,1929.0,,,,Lägenhet,Kungsholmen Fridhemsplan,Slutpris,15.0,2016-01-14,59.33675003,18.02706146,/annons/2014490,SoldProperty,3250000,1.0,92857.0,35.0,1.0,555000.0,20.6,2695000.0,,,,
440,2023081,Industrigatan 16,1935.0,,,,Lägenhet,Kungsholmen Fridhemsplan,Slutpris,26.0,2016-02-10,59.33756711,18.02868033,/bostad/255568,SoldProperty,5700000,1.0,77027.0,74.0,2.0,205000.0,3.7,5495000.0,,,,
441,2073124,Sankt Göransgatan 153,1949.0,,,,Lägenhet,Kungsholmen Stadshagen,Slutpris,15.0,2016-04-24,59.33803663,18.0143824,/bostad/721516,SoldProperty,2360000,8.0,104889.0,22.5,1.0,510000.0,27.6,1850000.0,,,,
442,2051411,Sankt Göransgatan 153,1949.0,,,,Lägenhet,Kungsholmen Stadshagen,Slutpris,13.0,2016-03-17,59.33803663,18.0143824,/bostad/721509,SoldProperty,2490000,8.0,110667.0,22.5,1.0,595000.0,31.4,1895000.0,,,,
443,2051112,Essingestråket 11,1938.0,,,,Lägenhet,Kungsholmen Stora Essingen,Slutpris,56.0,2016-04-29,59.31937555,17.98887544,/bostad/567988,SoldProperty,2800000,3.0,66667.0,42.0,2.0,405000.0,16.9,2395000.0,,,,
444,2120967,Celsiusgatan 8,1932.0,,,,Lägenhet,Kungsholmen Fridhemsplan,Slutpris,13.0,2016-06-16,59.3331246,18.039318,/bostad/582898,SoldProperty,3650000,3.0,89024.0,41.0,2.0,700000.0,23.7,2950000.0,,,,
445,2078775,Wargentinsgatan 5B,1932.0,,,,Lägenhet,Kungsholmen Fridhemsplan,Slutpris,14.0,2016-07-07,59.33263479,18.0399721,/annons/2078775,SoldProperty,3825000,2.0,91071.0,42.0,2.0,530000.0,16.1,3295000.0,,,,
446,2102727,Hjärnegatan 10,1890.0,,,,Lägenhet,Kungsholmen Fridhemsplan,Slutpris,14.0,2016-05-27,59.3327124,18.04132328,/bostad/436515,SoldProperty,6875000,5.0,94178.0,73.0,3.0,900000.0,15.1,5975000.0,,,,
447,2102906,Industrigatan 9,1933.0,,,,Lägenhet,Kungsholmen Fridhemsplan,Slutpris,56.0,2016-07-08,59.33674,18.029713,/annons/2102906,SoldProperty,5230000,5.0,83016.0,63.0,3.0,735000.0,16.4,4495000.0,,,,
448,2109046,Levertinsgatan 1,1931.0,,,,Lägenhet,Kungsholmen Kristineberg,Slutpris,22.0,2016-09-10,59.3338575,17.9986538,/bostad/654739,SoldProperty,5200000,1.0,65000.0,80.0,4.0,605000.0,13.2,4595000.0,,,,
449,2148261,Alströmergatan 23,1959.0,,,,Lägenhet,Kungsholmen Fridhemsplan,Slutpris,11.0,2016-08-17,59.3355,18.03037,/bostad/468739,SoldProperty,3960000,2.0,102857.0,38.5,2.0,1010000.0,34.2,2950000.0,,,,
450,2177580,Celsiusgatan 8,1932.0,,,,Lägenhet,Kungsholmen Fridhemsplan,Slutpris,13.0,2016-09-29,59.3331246,18.039318,/annons/2177580,SoldProperty,3740000,1.5,85977.0,43.5,2.0,490000.0,15.1,3250000.0,,,,
451,2183846,Kungsgatan 80,1884.0,,,,Lägenhet,Kungsholmen Nedre,Slutpris,13.0,2016-10-07,59.3317818,18.0484391,/bostad/646143,SoldProperty,7400000,2.0,86047.0,86.0,3.0,405000.0,5.8,6995000.0,,,,
452,2030354,Karlsviksgatan 8,1928.0,,,,Lägenhet,Kungsholmen,Slutpris,13.0,2016-02-12,59.32996417,18.02870662,/bostad/631162,SoldProperty,10000000,1.0,97087.0,103.0,3.5,2005000.0,25.1,7995000.0,,,,
453,2026995,Parkgatan 8,1899.0,,,,Lägenhet,Över,Slutpris,13.0,2016-02-04,59.33326689,18.0366216,/annons/2026995,SoldProperty,3150000,2.0,90000.0,35.0,1.0,200000.0,6.8,2950000.0,,,,
454,2050977,Garvar Lundins gränd 6,1927.0,,,,Lägenhet,Kungsholmen,Slutpris,13.0,2016-03-17,59.32735,18.04379,/annons/2050977,SoldProperty,6720000,3.0,100299.0,67.0,3.0,1225000.0,22.3,5495000.0,,,,
455,2037767,Sankt Göransgatan 70,1940.0,,,,Lägenhet,Kungsholmen,Slutpris,21.0,2016-03-04,59.333508,18.030838,/annons/2037767,SoldProperty,3800000,4.0,90476.0,42.0,2.0,305000.0,8.7,3495000.0,,,,
456,2064304,Sysslomansgatan 22,1940.0,,,,Lägenhet,Kungsholmen,Slutpris,14.0,2016-04-08,59.3310869,18.0243153,/annons/2064304,SoldProperty,5000000,4.0,79365.0,63.0,2.5,605000.0,13.8,4395000.0,,,,
457,2064248,Olof Gjödingsgatan 2,1928.0,,,,Lägenhet,Kungsholmen,Slutpris,14.0,2016-04-08,59.33058956,18.03465373,/bostad/320409,SoldProperty,3500000,3.0,80092.0,43.7,1.0,505000.0,16.9,2995000.0,,,,
458,2067014,Bergsgatan 27A,1882.0,,,,Lägenhet,Kungsholmen,Slutpris,13.0,2016-04-14,59.3298422,18.04088282,/annons/2067014,SoldProperty,4100000,1.0,78846.0,52.0,2.0,500000.0,13.9,3600000.0,,,,
459,2100833,Ernst Ahlgrens väg 8,1932.0,,,,Lägenhet,Kungsholmen,Slutpris,14.0,2016-05-26,59.330513,18.004158,/bostad/566405,SoldProperty,2700000,0.5,79412.0,34.0,1.0,305000.0,12.7,2395000.0,,,,
460,2107538,Hjärnegatan 7,1904.0,,,,Lägenhet,Kungsholmen,Slutpris,15.0,2016-06-03,59.33249069,18.04156194,/bostad/436459,SoldProperty,3400000,1.0,79070.0,43.0,1.0,405000.0,13.5,2995000.0,,,,
461,2113981,Baltzar von Platens gata 4,1932.0,,,,Lägenhet,Kungsholmen,Slutpris,16.0,2016-06-11,59.32849254,18.03170573,/annons/2113981,SoldProperty,4130000,3.0,96047.0,43.0,2.0,55000.0,1.3,4075000.0,,,,
462,2129678,Sankt Göransgatan 72,1940.0,,,,Lägenhet,Kungsholmen,Slutpris,10.0,2016-08-10,59.33367391,18.0310211,/bostad/721673,SoldProperty,3010000,2.0,128085.0,23.5,1.0,1015000.0,50.9,1995000.0,,,,
463,2151886,Primusgatan 50,2006.0,,,,Lägenhet,Kungsholmen,Slutpris,12.0,2016-08-24,59.32381,18.001,/bostad/665018,SoldProperty,4000000,9.0,63492.0,63.0,2.0,650000.0,19.4,3350000.0,,,,
464,2144824,Alströmergatan 32A,1929.0,,,,Lägenhet,Kungsholmen,Slutpris,12.0,2016-08-10,59.3370422,18.02640203,/annons/2144824,SoldProperty,3880000,5.0,99487.0,39.0,2.0,885000.0,29.5,2995000.0,,,,
465,2151936,Kristinebergsvägen 48,1979.0,,,,Lägenhet,Kungsholmen,Slutpris,14.0,2016-08-26,59.3330614,18.013803,/bostad/393985,SoldProperty,5400000,2.0,71523.0,75.5,3.0,405000.0,8.1,4995000.0,,,,
466,2193484,Kungsholmsgatan 44,1901.0,,,,Lägenhet,Kungsholmen,Slutpris,13.0,2016-10-20,59.3322336,18.0400995,/annons/2193484,SoldProperty,4400000,2.0,104762.0,42.0,2.0,905000.0,25.9,3495000.0,,,,
467,2219045,Parkgatan 16,1902.0,,,,Lägenhet,Kungsholmen,Slutpris,11.0,2016-11-29,59.3334834,18.0349361,/bostad/131507,SoldProperty,5900000,5.0,120408.0,49.0,2.0,950000.0,19.2,4950000.0,,,,
468,3077185,Rålambsvägen 46,1932.0,,,,Lägenhet,Kungsholmen,Slutpris,21.0,2016-12-16,59.33002,18.00499,/annons/3077185,SoldProperty,3000000,3.0,101695.0,29.5,1.0,705000.0,30.7,2295000.0,,,,
469,2029160,Sankt Eriksgatan 12,1912.0,,,,Lägenhet,Kungsholmen,Slutpris,13.0,2016-02-10,59.330097,18.030067,/bostad/804318,SoldProperty,5880000,3.5,91875.0,64.0,2.0,685000.0,13.2,5195000.0,,,,
470,2155684,Rålambsvägen 29,1943.0,,,,Lägenhet,Kungsholmen,Slutpris,13.0,2016-08-31,59.32837,18.01121,/bostad/715291,SoldProperty,3600000,6.0,70588.0,51.0,2.0,105000.0,3.0,3495000.0,,,,
471,2181423,Polhemsgatan 3,1932.0,,,,Lägenhet,Kungsholmen,Slutpris,14.0,2016-10-05,59.32818131,18.03503673,/bostad/701143,SoldProperty,4050000,4.0,103846.0,39.0,2.0,555000.0,15.9,3495000.0,,,,
472,2181059,Rålambsvägen 29,1943.0,,,,Lägenhet,Kungsholmen,Slutpris,14.0,2016-10-05,59.32837,18.01121,/annons/2181059,SoldProperty,4050000,2.0,75000.0,54.0,2.0,555000.0,15.9,3495000.0,,,,
473,2186684,Lidnersplan 12,1938.0,,,,Lägenhet,Kungsholmen,Slutpris,15.0,2016-10-13,59.33604859,17.99797797,/bostad/498758,SoldProperty,5770000,4.0,90156.0,64.0,3.0,975000.0,20.3,4795000.0,,,,
474,2062755,Narvavägen 16,1896.0,,,,Lägenhet,Östermalm,Slutpris,13.0,2016-04-06,59.33525421,18.09193522,/bostad/681670,SoldProperty,15800000,4.0,138596.0,114.0,4.0,900000.0,6.0,14900000.0,,,,
475,2025272,Wennerbergsgatan 6A,1945.0,,,,Lägenhet,Kungsholmen,Slutpris,7.0,2016-01-26,59.32762,18.01293,/annons/2025272,SoldProperty,2800000,2.0,93333.0,30.0,1.0,650000.0,30.2,2150000.0,,,,
476,2036222,Runiusgatan 7,1931.0,,,,Lägenhet,Kungsholmen,Slutpris,15.0,2016-02-26,59.32978556,18.00876966,/bostad/712666,SoldProperty,3050000,1.5,63542.0,48.0,2.0,155000.0,5.4,2895000.0,,,,
477,2044358,Fleminggatan 101,1908.0,,,,Lägenhet,Kungsholmen,Slutpris,23.0,2016-03-19,59.33479,18.029154,/annons/2044358,SoldProperty,4485000,5.0,83056.0,54.0,2.0,490000.0,12.3,3995000.0,,,,
478,2062523,Storskärsgatan 4,1932.0,,,,Lägenhet,Gärdet,Slutpris,14.0,2016-04-07,59.34188045,18.09554254,/annons/2062523,SoldProperty,7550000,2.0,89881.0,84.0,3.0,1300000.0,20.8,6250000.0,,,,
479,2089308,Frödingsvägen 1,1932.0,,,,Lägenhet,Kungsholmen,Slutpris,13.0,2016-05-12,59.33116,18.003605,/bostad/309696,SoldProperty,2810000,3.0,96897.0,29.0,2.0,515000.0,22.4,2295000.0,,,,
480,2165952,Torbjörn Klockares gata 4,1925.0,,,,Lägenhet,Vasastan,Slutpris,5.0,2016-09-07,59.344402,18.033918,/annons/2165952,SoldProperty,3895000,2.0,84674.0,46.0,2.0,0.0,0.0,3895000.0,,,,
481,2162324,Svedbergsplan 6,1944.0,,,,Lägenhet,Kungsholmen,Slutpris,11.0,2016-09-07,59.32748441,18.01152743,/annons/2162324,SoldProperty,3600000,2.0,75000.0,48.0,2.0,605000.0,20.2,2995000.0,,,,
482,2114593,Stagneliusvägen 32,1939.0,,,,Lägenhet,Kungsholmen,Slutpris,19.0,2016-06-15,59.328377,18.008257,/annons/2114593,SoldProperty,2800000,1.0,58333.0,48.0,1.0,5000.0,0.2,2795000.0,,,,
483,2222850,Ringvägen 83,1932.0,,,,Lägenhet,Södermalm,Slutpris,14.0,2016-12-09,59.3086043,18.0654154,/bostad/709802,SoldProperty,5300000,4.0,86885.0,61.0,2.0,805000.0,17.9,4495000.0,,,,
484,2213398,Gotlandsgatan 64,1929.0,,,,Lägenhet,Södermalm,Slutpris,28.0,2016-12-07,59.31012,18.080677,/annons/2213398,SoldProperty,3850000,4.0,93902.0,41.0,1.5,855000.0,28.5,2995000.0,,,,
485,2096332,Levertinsgatan 1,1931.0,,,,Lägenhet,Kungsholmen,Slutpris,12.0,2016-05-19,59.3338575,17.9986538,/annons/2096332,SoldProperty,4600000,0.5,61333.0,75.0,3.0,450000.0,10.8,4150000.0,,,,
486,2101226,Upplandsgatan 59,1890.0,,,,Lägenhet,Vasastan,Slutpris,19.0,2016-06-01,59.34342,18.047565,/bostad/780059,SoldProperty,6600000,0.5,86842.0,76.0,3.0,450000.0,7.3,6150000.0,,,,
487,2103800,Sturegatan 44C,1880.0,,,,Lägenhet,Östermalm,Slutpris,18.0,2016-06-03,59.341045,18.077618,/bostad/100228,SoldProperty,4720000,1.0,85818.0,55.0,2.0,245000.0,5.5,4475000.0,,,,
488,2150414,Hornsgatan 180,1883.0,,,,Lägenhet,Södermalm,Slutpris,13.0,2016-08-23,59.3152949,18.0323516,/bostad/438923,SoldProperty,3275000,1.0,109167.0,30.0,1.0,880000.0,36.7,2395000.0,,,,
489,2124361,Roslagsgatan 23,1903.0,,,,Lägenhet,Vasastan,Slutpris,12.0,2016-06-22,59.347336,18.058828,/bostad/805191,SoldProperty,9600000,5.0,129730.0,74.0,3.0,1625000.0,20.4,7975000.0,,,,
490,2113430,Warfvinges väg 18,2014.0,,,,Lägenhet,Kungsholmen,Slutpris,19.0,2016-06-14,59.3365318,18.0142126,/bostad/3786172,SoldProperty,5375000,6.0,68471.0,78.5,3.0,-200000.0,-3.6,5575000.0,,,,
491,2161462,Kungstensgatan 28A,1909.0,,,,Lägenhet,Vasastan,Slutpris,15.0,2016-09-10,59.3417251,18.0586089,/bostad/647875,SoldProperty,11625000,1.0,84854.0,137.0,5.0,1025000.0,9.7,10600000.0,,,,
492,2164742,Hornsgatan 39B,1909.0,,,,Lägenhet,Södermalm,Slutpris,12.0,2016-09-13,59.318413,18.059772,/bostad/438762,SoldProperty,5365000,2.0,92500.0,58.0,2.0,715000.0,15.4,4650000.0,,,,
493,2138050,Gotlandsgatan 49,2012.0,,,,Lägenhet,Södermalm,Slutpris,16.0,2016-09-16,59.3104,18.0775,/annons/2138050,SoldProperty,7680000,5.0,98462.0,78.0,3.0,730000.0,10.5,6950000.0,,,,
494,2198072,Sandelsgatan 12,1962.0,,,,Lägenhet,Gärdet,Slutpris,12.0,2016-10-26,59.344944,18.089796,/bostad/69261,SoldProperty,3410000,3.0,100294.0,34.0,1.0,1035000.0,43.6,2375000.0,,,,
495,2226107,Ölandsgatan 47,1927.0,,,,Lägenhet,Södermalm,Slutpris,17.0,2016-12-19,59.30880756,18.07729684,/bostad/797724,SoldProperty,4300000,,66154.0,65.0,2.5,-195000.0,-4.3,4495000.0,,,,
496,2107364,Vikingagatan 12,1908.0,,,,Lägenhet,Vasastan,Slutpris,15.0,2016-06-03,59.34069,18.032877,/bostad/788265,SoldProperty,5720000,2.0,102143.0,56.0,2.0,770000.0,15.6,4950000.0,,,,
497,2103528,Erik Dahlbergsgatan 35,1935.0,,,,Lägenhet,Gärdet,Slutpris,14.0,2016-05-28,59.343304,18.091915,/bostad/564620,SoldProperty,3700000,2.0,92500.0,40.0,2.0,600000.0,19.4,3100000.0,,,,
498,2129665,Atlasgatan 13,1928.0,,,,Lägenhet,Vasastan,Slutpris,2.0,2016-06-21,59.33834,18.03757,/bostad/562218,SoldProperty,5825000,1.5,91016.0,64.0,2.0,875000.0,17.7,4950000.0,,,,
499,2147210,Frödingsvägen 6,1933.0,,,,Lägenhet,Kungsholmen,Slutpris,12.0,2016-08-16,59.3308037,18.00284,/annons/2147210,SoldProperty,4150000,3.0,78302.0,53.0,2.0,800000.0,23.9,3350000.0,,,,
500,2156681,Birger Jarlsgatan 113D,1906.0,,,,Lägenhet,Vasastan,Slutpris,12.0,2016-08-31,59.34918309,18.05881942,/bostad/153265,SoldProperty,6420000,1.0,78293.0,82.0,3.0,720000.0,12.6,5700000.0,,,,
501,2141592,Roslagsgatan 53,1929.0,,,,Lägenhet,Vasastan,Slutpris,2.0,2016-07-22,59.3497971,18.056227,/annons/2141592,SoldProperty,2800000,1.0,100000.0,28.0,1.0,405000.0,16.9,2395000.0,,,,
502,2166105,Smedsbacksgatan 20,1939.0,,,,Lägenhet,Gärdet,Slutpris,12.0,2016-09-14,59.348194,18.099388,/annons/2166105,SoldProperty,3600000,5.0,97297.0,37.0,2.0,805000.0,28.8,2795000.0,,,,
503,2188668,Birger Jarlsgatan 113B,1906.0,,,,Lägenhet,Vasastan,Slutpris,13.0,2016-10-13,59.34926379,18.05882669,/bostad/153278,SoldProperty,6200000,2.0,82667.0,75.0,3.0,710000.0,12.9,5490000.0,,,,
504,2182181,Smedsbacksgatan 14,1939.0,,,,Lägenhet,Gärdet,Slutpris,16.0,2016-10-08,59.34773221,18.10005598,/annons/2182181,SoldProperty,3325000,1.0,81098.0,41.0,1.0,330000.0,11.0,2995000.0,,,,
505,2100085,Tjustgatan 5,1967.0,,,,Lägenhet,Södermalm,Slutpris,17.0,2016-10-17,59.31194,18.07079,/annons/2100085,SoldProperty,10000000,4.0,69930.0,143.0,4.0,25000.0,0.3,9975000.0,,,,
506,2191015,Kungstensgatan 60,1880.0,,,,Lägenhet,Vasastan,Slutpris,15.0,2016-10-20,59.33936619,18.04901739,/bostad/2150464,SoldProperty,7075000,1.0,93092.0,76.0,3.0,325000.0,4.8,6750000.0,,,,
507,2188962,Tjustgatan 5,1967.0,,,,Lägenhet,Södermalm,Slutpris,27.0,2016-10-28,59.31194,18.07079,/bostad/79889,SoldProperty,3825000,2.0,79688.0,48.0,2.0,335000.0,9.6,3490000.0,,,,
508,2086532,Blekingegatan 12,1913.0,,,,Lägenhet,Södermalm,Slutpris,12.0,2016-10-29,59.3092,18.0659,/bostad/576876,SoldProperty,5110000,1.0,79844.0,64.0,2.0,620000.0,13.8,4490000.0,,,,
509,2118411,Erstagatan 13,1905.0,,,,Lägenhet,Sofia,Slutpris,13.0,2016-06-16,59.314854,18.09032,/annons/2118411,SoldProperty,3830000,4.0,93415.0,41.0,2.0,635000.0,19.9,3195000.0,,,,
510,2114464,Bastugatan 55,1906.0,,,,Lägenhet,Mariaberget,Slutpris,19.0,2016-06-22,59.31949,18.056698,/bostad/581981,SoldProperty,5150000,0.5,74638.0,69.0,3.0,300000.0,6.2,4850000.0,,,,
511,2154034,Bastugatan 25,1931.0,,,,Lägenhet,Mariaberget,Slutpris,12.0,2016-09-01,59.32012828,18.06119966,/annons/2154034,SoldProperty,3600000,2.0,97297.0,37.0,1.5,605000.0,20.2,2995000.0,,,,
512,2016967,Tomtebogatan 44,1913.0,,,,Lägenhet,Vasastan,Slutpris,13.0,2016-01-14,59.342365,18.02773,/annons/2016967,SoldProperty,5200000,4.0,94545.0,55.0,2.0,705000.0,15.7,4495000.0,,,,
513,2037486,Regeringsgatan 70D,1982.0,,,,Lägenhet,Vasastan,Slutpris,13.0,2016-02-25,59.336853,18.068974,/bostad/704910,SoldProperty,8925000,5.0,98077.0,91.0,4.0,0.0,0.0,8925000.0,,,,
514,2037997,Gyllenborgsgatan 22,1926.0,,,,Lägenhet,Thorildsplan,Slutpris,14.0,2016-02-26,59.33318,18.015371,/annons/2037997,SoldProperty,4735000,,73984.0,64.0,2.0,585000.0,14.1,4150000.0,,,,
515,2055537,Pilgatan 28,1927.0,,,,Lägenhet,Kungsholmen,Slutpris,12.0,2016-03-23,59.33014,18.03988,/bostad/804672,SoldProperty,3850000,3.0,96250.0,40.0,2.0,655000.0,20.5,3195000.0,,,,
516,2045247,Döbelnsgatan 57,1928.0,,,,Lägenhet,Vasastan,Slutpris,13.0,2016-03-10,59.342632,18.059683,/bostad/344364,SoldProperty,3210000,3.0,107000.0,30.0,1.0,515000.0,19.1,2695000.0,,,,
517,2055501,Sibyllegatan 51,1939.0,,,,Lägenhet,Östermalm,Slutpris,13.0,2016-03-24,59.33844,18.081697,/bostad/724013,SoldProperty,4175000,4.0,122794.0,34.0,2.0,0.0,0.0,4175000.0,,,,
518,2064295,Artillerigatan 33,1935.0,,,,Lägenhet,Östermalm,Slutpris,13.0,2016-04-07,59.33633364,18.08241181,/annons/2064295,SoldProperty,4800000,5.0,126316.0,38.0,2.0,0.0,0.0,4800000.0,,,,
519,2049803,Bondegatan 1C,1910.0,,,,Lägenhet,Södermalm,Slutpris,14.0,2016-03-17,59.312656,18.075058,/annons/2049803,SoldProperty,4060000,2.0,96667.0,42.0,2.0,910000.0,28.9,3150000.0,,,,
520,1794477,Surbrunnsgatan 34,1887.0,,,,Lägenhet,Vasastan,Slutpris,14.0,2016-04-15,59.3455846,18.0577981,/annons/1794477,SoldProperty,9050000,2.0,100556.0,90.0,3.0,0.0,0.0,9050000.0,,,,
521,2073016,Vulcanusgatan 3,1928.0,,,,Lägenhet,Vasastan,Slutpris,11.0,2016-04-20,59.3380758,18.0368045,/bostad/791027,SoldProperty,3825000,0.5,100658.0,38.0,2.0,0.0,0.0,3825000.0,,,,
522,2063649,Frejgatan 36A,1944.0,,,,Lägenhet,Vasastan,Slutpris,14.0,2016-04-07,59.344894,18.047089,/bostad/305637,SoldProperty,3220000,4.0,115000.0,28.0,1.0,725000.0,29.1,2495000.0,,,,
